{
"type": "FeatureCollection",
"name": "trainStations",
"crs": { "type": "name", "properties": { "name": "urn:ogc:def:crs:OGC:1.3:CRS84" } },
"features": [
{ "type": "Feature", "properties": { "METLINKSTO": "20337", "STATIONNAM": "Riddells Creek", "STATIONTYP": " ", "ZONES": "2,3,Reg", "STOPMODENA": "V/Line Train" }, "geometry": { "type": "Point", "coordinates": [ 144.679828000295799, -37.465127000080791 ] } },
{ "type": "Feature", "properties": { "METLINKSTO": "20338", "STATIONNAM": "Rochester", "STATIONTYP": " ", "ZONES": "Reg", "STOPMODENA": "V/Line Train" }, "geometry": { "type": "Point", "coordinates": [ 144.698683000119956, -36.362363000487022 ] } },
{ "type": "Feature", "properties": { "METLINKSTO": "20339", "STATIONNAM": "Rosedale", "STATIONTYP": " ", "ZONES": "14,Reg", "STOPMODENA": "V/Line Train" }, "geometry": { "type": "Point", "coordinates": [ 146.786965000987152, -38.156403000285799 ] } },
{ "type": "Feature", "properties": { "METLINKSTO": "20341", "STATIONNAM": "Sale", "STATIONTYP": " ", "ZONES": "Reg", "STOPMODENA": "V/Line Train" }, "geometry": { "type": "Point", "coordinates": [ 147.054802000144434, -38.103105000539728 ] } },
{ "type": "Feature", "properties": { "METLINKSTO": "20342", "STATIONNAM": "Seymour", "STATIONTYP": " ", "ZONES": "6,7,Reg", "STOPMODENA": "V/Line Train" }, "geometry": { "type": "Point", "coordinates": [ 145.137732999741502, -37.024724999630045 ] } },
{ "type": "Feature", "properties": { "METLINKSTO": "20343", "STATIONNAM": "Shepparton", "STATIONTYP": " ", "ZONES": "Reg", "STOPMODENA": "V/Line Train" }, "geometry": { "type": "Point", "coordinates": [ 145.406500000126954, -36.38379500040827 ] } },
{ "type": "Feature", "properties": { "METLINKSTO": "20344", "STATIONNAM": "South Geelong", "STATIONTYP": " ", "ZONES": "4,Reg", "STOPMODENA": "V/Line Train" }, "geometry": { "type": "Point", "coordinates": [ 144.358987000579333, -38.158660000424184 ] } },
{ "type": "Feature", "properties": { "METLINKSTO": "20345", "STATIONNAM": "Springhurst", "STATIONTYP": " ", "ZONES": "Reg", "STOPMODENA": "V/Line Train" }, "geometry": { "type": "Point", "coordinates": [ 146.470420999785887, -36.18589399989618 ] } },
{ "type": "Feature", "properties": { "METLINKSTO": "20346", "STATIONNAM": "Stratford", "STATIONTYP": " ", "ZONES": "Reg", "STOPMODENA": "V/Line Train" }, "geometry": { "type": "Point", "coordinates": [ 147.08146800038142, -37.967047000028792 ] } },
{ "type": "Feature", "properties": { "METLINKSTO": "20347", "STATIONNAM": "Swan Hill", "STATIONTYP": " ", "ZONES": "Reg", "STOPMODENA": "V/Line Train" }, "geometry": { "type": "Point", "coordinates": [ 143.562347000698935, -35.341112999635996 ] } },
{ "type": "Feature", "properties": { "METLINKSTO": "20348", "STATIONNAM": "Tallarook", "STATIONTYP": " ", "ZONES": "5,6,Reg", "STOPMODENA": "V/Line Train" }, "geometry": { "type": "Point", "coordinates": [ 145.103002000138758, -37.092331999843019 ] } },
{ "type": "Feature", "properties": { "METLINKSTO": "20349", "STATIONNAM": "Terang", "STATIONTYP": " ", "ZONES": "Reg", "STOPMODENA": "V/Line Train" }, "geometry": { "type": "Point", "coordinates": [ 142.911466999394833, -38.236214999892169 ] } },
{ "type": "Feature", "properties": { "METLINKSTO": "20350", "STATIONNAM": "Trafalgar", "STATIONTYP": " ", "ZONES": "8,9,Reg", "STOPMODENA": "V/Line Train" }, "geometry": { "type": "Point", "coordinates": [ 146.15476999937249, -38.207238999757614 ] } },
{ "type": "Feature", "properties": { "METLINKSTO": "20351", "STATIONNAM": "Traralgon", "STATIONTYP": " ", "ZONES": "12,13,Reg", "STOPMODENA": "V/Line Train" }, "geometry": { "type": "Point", "coordinates": [ 146.537883999952754, -38.198888999928499 ] } },
{ "type": "Feature", "properties": { "METLINKSTO": "20352", "STATIONNAM": "Tynong", "STATIONTYP": " ", "ZONES": "3,4,Reg", "STOPMODENA": "V/Line Train" }, "geometry": { "type": "Point", "coordinates": [ 145.628230999846409, -38.084994000084635 ] } },
{ "type": "Feature", "properties": { "METLINKSTO": "20353", "STATIONNAM": "Violet Town", "STATIONTYP": " ", "ZONES": "13,14,Reg", "STOPMODENA": "V/Line Train" }, "geometry": { "type": "Point", "coordinates": [ 145.715925999505771, -36.638817000027295 ] } },
{ "type": "Feature", "properties": { "METLINKSTO": "20355", "STATIONNAM": "Wandong", "STATIONTYP": " ", "ZONES": "2", "STOPMODENA": "V/Line Train" }, "geometry": { "type": "Point", "coordinates": [ 145.026414000331812, -37.354675999982511 ] } },
{ "type": "Feature", "properties": { "METLINKSTO": "20356", "STATIONNAM": "Wangaratta", "STATIONTYP": " ", "ZONES": "Reg", "STOPMODENA": "V/Line Train" }, "geometry": { "type": "Point", "coordinates": [ 146.317041000392152, -36.355101999744619 ] } },
{ "type": "Feature", "properties": { "METLINKSTO": "20357", "STATIONNAM": "Warragul", "STATIONTYP": " ", "ZONES": "6,7,Reg", "STOPMODENA": "V/Line Train" }, "geometry": { "type": "Point", "coordinates": [ 145.933090000038277, -38.16522699977655 ] } },
{ "type": "Feature", "properties": { "METLINKSTO": "20358", "STATIONNAM": "Warrnambool", "STATIONTYP": " ", "ZONES": "Reg", "STOPMODENA": "V/Line Train" }, "geometry": { "type": "Point", "coordinates": [ 142.475546999594712, -38.385015000426854 ] } },
{ "type": "Feature", "properties": { "METLINKSTO": "20359", "STATIONNAM": "Winchelsea", "STATIONTYP": " ", "ZONES": "8,Reg", "STOPMODENA": "V/Line Train" }, "geometry": { "type": "Point", "coordinates": [ 143.984136999238814, -38.240133000122334 ] } },
{ "type": "Feature", "properties": { "METLINKSTO": "20360", "STATIONNAM": "Wodonga", "STATIONTYP": " ", "ZONES": "Reg", "STOPMODENA": "V/Line Train" }, "geometry": { "type": "Point", "coordinates": [ 146.87126699974911, -36.105828999381103 ] } },
{ "type": "Feature", "properties": { "METLINKSTO": "20361", "STATIONNAM": "Woodend", "STATIONTYP": " ", "ZONES": "4,5,Reg", "STOPMODENA": "V/Line Train" }, "geometry": { "type": "Point", "coordinates": [ 144.525892999659675, -37.358803000095293 ] } },
{ "type": "Feature", "properties": { "METLINKSTO": "20362", "STATIONNAM": "Yarragon", "STATIONTYP": " ", "ZONES": "8,Reg", "STOPMODENA": "V/Line Train" }, "geometry": { "type": "Point", "coordinates": [ 146.063065000119167, -38.203154999631309 ] } },
{ "type": "Feature", "properties": { "METLINKSTO": "20603", "STATIONNAM": "Wagga Wagga", "STATIONTYP": " ", "ZONES": "Reg", "STOPMODENA": "V/Line Train" }, "geometry": { "type": "Point", "coordinates": [ 147.368610000008943, -35.120559999799866 ] } },
{ "type": "Feature", "properties": { "METLINKSTO": "20604", "STATIONNAM": "Cootamundra", "STATIONTYP": " ", "ZONES": "Reg", "STOPMODENA": "V/Line Train" }, "geometry": { "type": "Point", "coordinates": [ 148.030280000132507, -34.641939999860817 ] } },
{ "type": "Feature", "properties": { "METLINKSTO": "20605", "STATIONNAM": "Goulburn", "STATIONTYP": " ", "ZONES": "Reg", "STOPMODENA": "V/Line Train" }, "geometry": { "type": "Point", "coordinates": [ 149.719440000421741, -34.758610000533764 ] } },
{ "type": "Feature", "properties": { "METLINKSTO": "20606", "STATIONNAM": "Central", "STATIONTYP": " ", "ZONES": "Reg", "STOPMODENA": "V/Line Train" }, "geometry": { "type": "Point", "coordinates": [ 151.206390000154983, -33.886389999541898 ] } },
{ "type": "Feature", "properties": { "METLINKSTO": "20622", "STATIONNAM": "Strathfield", "STATIONTYP": " ", "ZONES": "Reg", "STOPMODENA": "V/Line Train" }, "geometry": { "type": "Point", "coordinates": [ 151.093060000439124, -33.873059999844756 ] } },
{ "type": "Feature", "properties": { "METLINKSTO": "20623", "STATIONNAM": "Campbelltown", "STATIONTYP": " ", "ZONES": "Reg", "STOPMODENA": "V/Line Train" }, "geometry": { "type": "Point", "coordinates": [ 150.813060000109402, -34.06556000006838 ] } },
{ "type": "Feature", "properties": { "METLINKSTO": "20624", "STATIONNAM": "Moss Vale", "STATIONTYP": " ", "ZONES": "Reg", "STOPMODENA": "V/Line Train" }, "geometry": { "type": "Point", "coordinates": [ 150.371669999890372, -34.548059999360774 ] } },
{ "type": "Feature", "properties": { "METLINKSTO": "20625", "STATIONNAM": "Yass Junction", "STATIONTYP": " ", "ZONES": "Reg", "STOPMODENA": "V/Line Train" }, "geometry": { "type": "Point", "coordinates": [ 148.915234000367178, -34.808953999584396 ] } },
{ "type": "Feature", "properties": { "METLINKSTO": "20626", "STATIONNAM": "Harden", "STATIONTYP": " ", "ZONES": "Reg", "STOPMODENA": "V/Line Train" }, "geometry": { "type": "Point", "coordinates": [ 148.371555999825375, -34.553589000358876 ] } },
{ "type": "Feature", "properties": { "METLINKSTO": "20635", "STATIONNAM": "The Rock", "STATIONTYP": " ", "ZONES": "Reg", "STOPMODENA": "V/Line Train" }, "geometry": { "type": "Point", "coordinates": [ 147.118692000026186, -35.271720000460746 ] } },
{ "type": "Feature", "properties": { "METLINKSTO": "20636", "STATIONNAM": "Junee", "STATIONTYP": " ", "ZONES": "Reg", "STOPMODENA": "V/Line Train" }, "geometry": { "type": "Point", "coordinates": [ 147.583609999666663, -34.870559999918143 ] } },
{ "type": "Feature", "properties": { "METLINKSTO": "20637", "STATIONNAM": "Henty", "STATIONTYP": " ", "ZONES": "Reg", "STOPMODENA": "V/Line Train" }, "geometry": { "type": "Point", "coordinates": [ 147.035312999897769, -35.517636000029071 ] } },
{ "type": "Feature", "properties": { "METLINKSTO": "20638", "STATIONNAM": "Culcairn", "STATIONTYP": " ", "ZONES": "Reg", "STOPMODENA": "V/Line Train" }, "geometry": { "type": "Point", "coordinates": [ 147.038129999923569, -35.666102000469131 ] } },
{ "type": "Feature", "properties": { "METLINKSTO": "22180", "STATIONNAM": "Southern Cross", "STATIONTYP": "Premium", "ZONES": "1", "STOPMODENA": "Train" }, "geometry": { "type": "Point", "coordinates": [ 144.951409000509528, -37.817933000605507 ] } },
{ "type": "Feature", "properties": { "METLINKSTO": "22238", "STATIONNAM": "Flinders Street", "STATIONTYP": " ", "ZONES": "1,Reg", "STOPMODENA": "V/Line Train" }, "geometry": { "type": "Point", "coordinates": [ 144.966968000318275, -37.81830899931564 ] } },
{ "type": "Feature", "properties": { "METLINKSTO": "22239", "STATIONNAM": "North Melbourne", "STATIONTYP": " ", "ZONES": "1,Reg", "STOPMODENA": "V/Line Train" }, "geometry": { "type": "Point", "coordinates": [ 144.941509999905747, -37.806309000636048 ] } },
{ "type": "Feature", "properties": { "METLINKSTO": "22240", "STATIONNAM": "Footscray", "STATIONTYP": " ", "ZONES": "1,Reg", "STOPMODENA": "V/Line Train" }, "geometry": { "type": "Point", "coordinates": [ 144.902022999859554, -37.801409999843081 ] } },
{ "type": "Feature", "properties": { "METLINKSTO": "22241", "STATIONNAM": "Sunshine", "STATIONTYP": " ", "ZONES": "1,2,Reg", "STOPMODENA": "V/Line Train" }, "geometry": { "type": "Point", "coordinates": [ 144.832881000428188, -37.788536999862615 ] } },
{ "type": "Feature", "properties": { "METLINKSTO": "22242", "STATIONNAM": "Ginifer", "STATIONTYP": " ", "ZONES": "2,Reg", "STOPMODENA": "V/Line Train" }, "geometry": { "type": "Point", "coordinates": [ 144.810067999510721, -37.757995000370364 ] } },
{ "type": "Feature", "properties": { "METLINKSTO": "22243", "STATIONNAM": "St Albans", "STATIONTYP": " ", "ZONES": "2,Reg", "STOPMODENA": "V/Line Train" }, "geometry": { "type": "Point", "coordinates": [ 144.800049999615766, -37.744860000433427 ] } },
{ "type": "Feature", "properties": { "METLINKSTO": "22244", "STATIONNAM": "Watergardens", "STATIONTYP": " ", "ZONES": "2,Reg", "STOPMODENA": "V/Line Train" }, "geometry": { "type": "Point", "coordinates": [ 144.774185999348305, -37.701127999613703 ] } },
{ "type": "Feature", "properties": { "METLINKSTO": "22247", "STATIONNAM": "Richmond", "STATIONTYP": " ", "ZONES": "1,Reg", "STOPMODENA": "V/Line Train" }, "geometry": { "type": "Point", "coordinates": [ 144.990159999746851, -37.824070000436208 ] } },
{ "type": "Feature", "properties": { "METLINKSTO": "22248", "STATIONNAM": "Caulfield", "STATIONTYP": " ", "ZONES": "1,Reg", "STOPMODENA": "V/Line Train" }, "geometry": { "type": "Point", "coordinates": [ 145.042519999627501, -37.877460000271988 ] } },
{ "type": "Feature", "properties": { "METLINKSTO": "22249", "STATIONNAM": "Clayton", "STATIONTYP": " ", "ZONES": "2,Reg", "STOPMODENA": "V/Line Train" }, "geometry": { "type": "Point", "coordinates": [ 145.120531000680899, -37.924683000401927 ] } },
{ "type": "Feature", "properties": { "METLINKSTO": "22250", "STATIONNAM": "Dandenong", "STATIONTYP": " ", "ZONES": "2,Reg", "STOPMODENA": "V/Line Train" }, "geometry": { "type": "Point", "coordinates": [ 145.209727999929925, -37.989967999712761 ] } },
{ "type": "Feature", "properties": { "METLINKSTO": "22251", "STATIONNAM": "Berwick", "STATIONTYP": " ", "ZONES": "2,Reg", "STOPMODENA": "V/Line Train" }, "geometry": { "type": "Point", "coordinates": [ 145.345719999753868, -38.040409999219271 ] } },
{ "type": "Feature", "properties": { "METLINKSTO": "22252", "STATIONNAM": "Pakenham", "STATIONTYP": " ", "ZONES": "2,Reg", "STOPMODENA": "V/Line Train" }, "geometry": { "type": "Point", "coordinates": [ 145.486370000186042, -38.080609999867576 ] } },
{ "type": "Feature", "properties": { "METLINKSTO": "22253", "STATIONNAM": "Essendon", "STATIONTYP": " ", "ZONES": "1,Reg", "STOPMODENA": "V/Line Train" }, "geometry": { "type": "Point", "coordinates": [ 144.916200000287432, -37.756010000122629 ] } },
{ "type": "Feature", "properties": { "METLINKSTO": "22254", "STATIONNAM": "Broadmeadows", "STATIONTYP": " ", "ZONES": "2,Reg", "STOPMODENA": "V/Line Train" }, "geometry": { "type": "Point", "coordinates": [ 144.919610000072453, -37.683049999695314 ] } },
{ "type": "Feature", "properties": { "METLINKSTO": "22257", "STATIONNAM": "Sherwood Park", "STATIONTYP": " ", "ZONES": "Reg", "STOPMODENA": "V/Line Train" }, "geometry": { "type": "Point", "coordinates": [ 142.540560000476091, -38.386390000047662 ] } },
{ "type": "Feature", "properties": { "METLINKSTO": "40220", "STATIONNAM": "Roxburgh Park", "STATIONTYP": "Unmanned", "ZONES": "2", "STOPMODENA": "Train" }, "geometry": { "type": "Point", "coordinates": [ 144.935406999392427, -37.638232999933194 ] } },
{ "type": "Feature", "properties": { "METLINKSTO": "40221", "STATIONNAM": "Craigieburn", "STATIONTYP": "Premium", "ZONES": "2", "STOPMODENA": "Train" }, "geometry": { "type": "Point", "coordinates": [ 144.943324999909976, -37.601813000641265 ] } },
{ "type": "Feature", "properties": { "METLINKSTO": "43469", "STATIONNAM": "Wendouree", "STATIONTYP": " ", "ZONES": "8,Reg", "STOPMODENA": "V/Line Train" }, "geometry": { "type": "Point", "coordinates": [ 143.820061999717126, -37.539712999924362 ] } },
{ "type": "Feature", "properties": { "METLINKSTO": "44817", "STATIONNAM": "Coolaroo", "STATIONTYP": "Unmanned", "ZONES": "2", "STOPMODENA": "Train" }, "geometry": { "type": "Point", "coordinates": [ 144.926052999864766, -37.661000999852909 ] } },
{ "type": "Feature", "properties": { "METLINKSTO": "44951", "STATIONNAM": "Creswick", "STATIONTYP": " ", "ZONES": "9,Reg", "STOPMODENA": "V/Line Train" }, "geometry": { "type": "Point", "coordinates": [ 143.888122000651919, -37.424605000058641 ] } },
{ "type": "Feature", "properties": { "METLINKSTO": "44952", "STATIONNAM": "Clunes", "STATIONTYP": " ", "ZONES": "11,12,Reg", "STOPMODENA": "V/Line Train" }, "geometry": { "type": "Point", "coordinates": [ 143.781573999278493, -37.303142999715028 ] } },
{ "type": "Feature", "properties": { "METLINKSTO": "44953", "STATIONNAM": "Maryborough", "STATIONTYP": " ", "ZONES": "14,Reg", "STOPMODENA": "V/Line Train" }, "geometry": { "type": "Point", "coordinates": [ 143.742398999874467, -37.050912000110465 ] } },
{ "type": "Feature", "properties": { "METLINKSTO": "45792", "STATIONNAM": "Gunning", "STATIONTYP": " ", "ZONES": "Reg", "STOPMODENA": "V/Line Train" }, "geometry": { "type": "Point", "coordinates": [ 149.261616000022855, -34.779654000061235 ] } },
{ "type": "Feature", "properties": { "METLINKSTO": "45793", "STATIONNAM": "Lynbrook", "STATIONTYP": "Unmanned", "ZONES": "2", "STOPMODENA": "Train" }, "geometry": { "type": "Point", "coordinates": [ 145.249280000409698, -38.057345000040506 ] } },
{ "type": "Feature", "properties": { "METLINKSTO": "45794", "STATIONNAM": "Cardinia Road", "STATIONTYP": "Unmanned", "ZONES": "2", "STOPMODENA": "Train" }, "geometry": { "type": "Point", "coordinates": [ 145.43779399965095, -38.071287999813734 ] } },
{ "type": "Feature", "properties": { "METLINKSTO": "45795", "STATIONNAM": "South Morang", "STATIONTYP": "Premium", "ZONES": "2", "STOPMODENA": "Train" }, "geometry": { "type": "Point", "coordinates": [ 145.067037999909218, -37.649161000405513 ] } },
{ "type": "Feature", "properties": { "METLINKSTO": "46468", "STATIONNAM": "Williams Landing", "STATIONTYP": "Premium", "ZONES": "2", "STOPMODENA": "Train" }, "geometry": { "type": "Point", "coordinates": [ 144.747446000408218, -37.869867999445248 ] } },
{ "type": "Feature", "properties": { "METLINKSTO": "47482", "STATIONNAM": "Talbot", "STATIONTYP": " ", "ZONES": "Reg", "STOPMODENA": "V/Line Train" }, "geometry": { "type": "Point", "coordinates": [ 143.705635000149073, -37.172901999500787 ] } },
{ "type": "Feature", "properties": { "METLINKSTO": "47641", "STATIONNAM": "Waurn Ponds", "STATIONTYP": " ", "ZONES": "4,Reg", "STOPMODENA": "V/Line Train" }, "geometry": { "type": "Point", "coordinates": [ 144.30681999989767, -38.215809999517987 ] } },
{ "type": "Feature", "properties": { "METLINKSTO": "47642", "STATIONNAM": "Epsom", "STATIONTYP": " ", "ZONES": "13,Reg", "STOPMODENA": "V/Line Train" }, "geometry": { "type": "Point", "coordinates": [ 144.321036000482763, -36.706342999697902 ] } },
{ "type": "Feature", "properties": { "METLINKSTO": "47647", "STATIONNAM": "Wyndham Vale", "STATIONTYP": " ", "ZONES": "2,Reg", "STOPMODENA": "V/Line Train" }, "geometry": { "type": "Point", "coordinates": [ 144.608477000151083, -37.87178299938553 ] } },
{ "type": "Feature", "properties": { "METLINKSTO": "47648", "STATIONNAM": "Tarneit", "STATIONTYP": " ", "ZONES": "2,Reg", "STOPMODENA": "V/Line Train" }, "geometry": { "type": "Point", "coordinates": [ 144.694716000057326, -37.832169000519123 ] } },
{ "type": "Feature", "properties": { "METLINKSTO": "52011", "STATIONNAM": "Caroline Springs", "STATIONTYP": " ", "ZONES": "2,Reg", "STOPMODENA": "V/Line Train" }, "geometry": { "type": "Point", "coordinates": [ 144.738023000273614, -37.767152999639819 ] } },
{ "type": "Feature", "properties": { "METLINKSTO": "20027", "STATIONNAM": "Flemington Racecourse", "STATIONTYP": "Unmanned", "ZONES": "1", "STOPMODENA": "Train" }, "geometry": { "type": "Point", "coordinates": [ 144.907592000625272, -37.787199000069471 ] } },
{ "type": "Feature", "properties": { "METLINKSTO": "20028", "STATIONNAM": "Showgrounds", "STATIONTYP": "Unmanned", "ZONES": "1", "STOPMODENA": "Train" }, "geometry": { "type": "Point", "coordinates": [ 144.91425800037581, -37.783474999385902 ] } },
{ "type": "Feature", "properties": { "METLINKSTO": "15351", "STATIONNAM": "Sunbury", "STATIONTYP": "Premium", "ZONES": "2", "STOPMODENA": "Train" }, "geometry": { "type": "Point", "coordinates": [ 144.727320000116549, -37.57909199986458 ] } },
{ "type": "Feature", "properties": { "METLINKSTO": "15353", "STATIONNAM": "Diggers Rest", "STATIONTYP": " ", "ZONES": "2", "STOPMODENA": "Train" }, "geometry": { "type": "Point", "coordinates": [ 144.719917999389878, -37.627013000234584 ] } },
{ "type": "Feature", "properties": { "METLINKSTO": "17204", "STATIONNAM": "Wallan", "STATIONTYP": " ", "ZONES": "2", "STOPMODENA": "V/Line Train" }, "geometry": { "type": "Point", "coordinates": [ 145.005377000038436, -37.416860000652285 ] } },
{ "type": "Feature", "properties": { "METLINKSTO": "19827", "STATIONNAM": "Stony Point", "STATIONTYP": "Unmanned", "ZONES": "2", "STOPMODENA": "Train" }, "geometry": { "type": "Point", "coordinates": [ 145.221842000854025, -38.374238000024334 ] } },
{ "type": "Feature", "properties": { "METLINKSTO": "19828", "STATIONNAM": "Crib Point", "STATIONTYP": "Unmanned", "ZONES": "2", "STOPMODENA": "Train" }, "geometry": { "type": "Point", "coordinates": [ 145.204047000317729, -38.366120000545259 ] } },
{ "type": "Feature", "properties": { "METLINKSTO": "19829", "STATIONNAM": "Morradoo", "STATIONTYP": "Unmanned", "ZONES": "2", "STOPMODENA": "Train" }, "geometry": { "type": "Point", "coordinates": [ 145.189606000743396, -38.354034999467345 ] } },
{ "type": "Feature", "properties": { "METLINKSTO": "19830", "STATIONNAM": "Bittern", "STATIONTYP": "Unmanned", "ZONES": "2", "STOPMODENA": "Train" }, "geometry": { "type": "Point", "coordinates": [ 145.17802600009091, -38.337390000359598 ] } },
{ "type": "Feature", "properties": { "METLINKSTO": "19831", "STATIONNAM": "Hastings", "STATIONTYP": "Unmanned", "ZONES": "2", "STOPMODENA": "Train" }, "geometry": { "type": "Point", "coordinates": [ 145.185979000205975, -38.305659999813656 ] } },
{ "type": "Feature", "properties": { "METLINKSTO": "19832", "STATIONNAM": "Tyabb", "STATIONTYP": "Unmanned", "ZONES": "2", "STOPMODENA": "Train" }, "geometry": { "type": "Point", "coordinates": [ 145.18640199999362, -38.25981700006357 ] } },
{ "type": "Feature", "properties": { "METLINKSTO": "19833", "STATIONNAM": "Somerville", "STATIONTYP": "Unmanned", "ZONES": "2", "STOPMODENA": "Train" }, "geometry": { "type": "Point", "coordinates": [ 145.176246000684642, -38.225341000287536 ] } },
{ "type": "Feature", "properties": { "METLINKSTO": "19834", "STATIONNAM": "Baxter", "STATIONTYP": "Unmanned", "ZONES": "2", "STOPMODENA": "Train" }, "geometry": { "type": "Point", "coordinates": [ 145.160525000706116, -38.194047000028597 ] } },
{ "type": "Feature", "properties": { "METLINKSTO": "19835", "STATIONNAM": "Glen Iris", "STATIONTYP": "Unmanned", "ZONES": "1", "STOPMODENA": "Train" }, "geometry": { "type": "Point", "coordinates": [ 145.058223000924528, -37.859305999956987 ] } },
{ "type": "Feature", "properties": { "METLINKSTO": "19836", "STATIONNAM": "Leawarra", "STATIONTYP": "Unmanned", "ZONES": "2", "STOPMODENA": "Train" }, "geometry": { "type": "Point", "coordinates": [ 145.139535000092735, -38.152035999294185 ] } },
{ "type": "Feature", "properties": { "METLINKSTO": "19837", "STATIONNAM": "Darling", "STATIONTYP": "Premium", "ZONES": "1,2", "STOPMODENA": "Train" }, "geometry": { "type": "Point", "coordinates": [ 145.062945999899483, -37.868956000174578 ] } },
{ "type": "Feature", "properties": { "METLINKSTO": "19838", "STATIONNAM": "East Malvern", "STATIONTYP": "Premium", "ZONES": "1,2", "STOPMODENA": "Train" }, "geometry": { "type": "Point", "coordinates": [ 145.069397000180402, -37.876929999349564 ] } },
{ "type": "Feature", "properties": { "METLINKSTO": "19839", "STATIONNAM": "Holmesglen", "STATIONTYP": "Host", "ZONES": "1,2", "STOPMODENA": "Train" }, "geometry": { "type": "Point", "coordinates": [ 145.090656999763212, -37.87440100038927 ] } },
{ "type": "Feature", "properties": { "METLINKSTO": "19840", "STATIONNAM": "Jordanville", "STATIONTYP": "Unmanned", "ZONES": "2", "STOPMODENA": "Train" }, "geometry": { "type": "Point", "coordinates": [ 145.11208899985121, -37.873598999600368 ] } },
{ "type": "Feature", "properties": { "METLINKSTO": "19841", "STATIONNAM": "Flagstaff", "STATIONTYP": "Premium", "ZONES": "1", "STOPMODENA": "Train" }, "geometry": { "type": "Point", "coordinates": [ 144.955652999727874, -37.811978000480259 ] } },
{ "type": "Feature", "properties": { "METLINKSTO": "19842", "STATIONNAM": "Melbourne Central", "STATIONTYP": "Premium", "ZONES": "1", "STOPMODENA": "Train" }, "geometry": { "type": "Point", "coordinates": [ 144.96259899977747, -37.809936000157663 ] } },
{ "type": "Feature", "properties": { "METLINKSTO": "19843", "STATIONNAM": "Parliament", "STATIONTYP": "Premium", "ZONES": "1", "STOPMODENA": "Train" }, "geometry": { "type": "Point", "coordinates": [ 144.972907000132921, -37.81105500023574 ] } },
{ "type": "Feature", "properties": { "METLINKSTO": "19844", "STATIONNAM": "Belgrave", "STATIONTYP": "Premium", "ZONES": "2", "STOPMODENA": "Train" }, "geometry": { "type": "Point", "coordinates": [ 145.355291000346512, -37.909099000662543 ] } },
{ "type": "Feature", "properties": { "METLINKSTO": "19845", "STATIONNAM": "Tecoma", "STATIONTYP": "Unmanned", "ZONES": "2", "STOPMODENA": "Train" }, "geometry": { "type": "Point", "coordinates": [ 145.342999000120045, -37.908116000155104 ] } },
{ "type": "Feature", "properties": { "METLINKSTO": "19846", "STATIONNAM": "Upwey", "STATIONTYP": "Unmanned", "ZONES": "2", "STOPMODENA": "Train" }, "geometry": { "type": "Point", "coordinates": [ 145.331335000537706, -37.903692000026588 ] } },
{ "type": "Feature", "properties": { "METLINKSTO": "19847", "STATIONNAM": "Alamein", "STATIONTYP": "Unmanned", "ZONES": "1", "STOPMODENA": "Train" }, "geometry": { "type": "Point", "coordinates": [ 145.079658999865501, -37.86831700031312 ] } },
{ "type": "Feature", "properties": { "METLINKSTO": "19848", "STATIONNAM": "Ashburton", "STATIONTYP": "Premium", "ZONES": "1", "STOPMODENA": "Train" }, "geometry": { "type": "Point", "coordinates": [ 145.081340999553191, -37.861968000161731 ] } },
{ "type": "Feature", "properties": { "METLINKSTO": "19849", "STATIONNAM": "Burwood", "STATIONTYP": "Host", "ZONES": "1", "STOPMODENA": "Train" }, "geometry": { "type": "Point", "coordinates": [ 145.080508000407661, -37.851561000141864 ] } },
{ "type": "Feature", "properties": { "METLINKSTO": "19850", "STATIONNAM": "Hartwell", "STATIONTYP": "Unmanned", "ZONES": "1", "STOPMODENA": "Train" }, "geometry": { "type": "Point", "coordinates": [ 145.075561000331447, -37.843984000378029 ] } },
{ "type": "Feature", "properties": { "METLINKSTO": "19851", "STATIONNAM": "Willison", "STATIONTYP": "Unmanned", "ZONES": "1", "STOPMODENA": "Train" }, "geometry": { "type": "Point", "coordinates": [ 145.070297999340625, -37.835711999993819 ] } },
{ "type": "Feature", "properties": { "METLINKSTO": "19852", "STATIONNAM": "Riversdale", "STATIONTYP": "Unmanned", "ZONES": "1", "STOPMODENA": "Train" }, "geometry": { "type": "Point", "coordinates": [ 145.069647999893903, -37.831502000484335 ] } },
{ "type": "Feature", "properties": { "METLINKSTO": "19853", "STATIONNAM": "Camberwell", "STATIONTYP": "Premium", "ZONES": "1", "STOPMODENA": "Train" }, "geometry": { "type": "Point", "coordinates": [ 145.058692000307019, -37.826564000281778 ] } },
{ "type": "Feature", "properties": { "METLINKSTO": "19854", "STATIONNAM": "Flinders Street", "STATIONTYP": "Premium", "ZONES": "1", "STOPMODENA": "Train" }, "geometry": { "type": "Point", "coordinates": [ 144.966966999654915, -37.81830799975598 ] } },
{ "type": "Feature", "properties": { "METLINKSTO": "19855", "STATIONNAM": "Frankston", "STATIONTYP": "Premium", "ZONES": "2", "STOPMODENA": "Train" }, "geometry": { "type": "Point", "coordinates": [ 145.126166000730734, -38.142986999610407 ] } },
{ "type": "Feature", "properties": { "METLINKSTO": "19856", "STATIONNAM": "Kananook", "STATIONTYP": "Unmanned", "ZONES": "2", "STOPMODENA": "Train" }, "geometry": { "type": "Point", "coordinates": [ 145.135291000510989, -38.121740000212803 ] } },
{ "type": "Feature", "properties": { "METLINKSTO": "19857", "STATIONNAM": "Seaford", "STATIONTYP": "Unmanned", "ZONES": "2", "STOPMODENA": "Train" }, "geometry": { "type": "Point", "coordinates": [ 145.128227999744183, -38.104017000345713 ] } },
{ "type": "Feature", "properties": { "METLINKSTO": "19858", "STATIONNAM": "Carrum", "STATIONTYP": "Premium", "ZONES": "2", "STOPMODENA": "Train" }, "geometry": { "type": "Point", "coordinates": [ 145.122414000119306, -38.074895999726728 ] } },
{ "type": "Feature", "properties": { "METLINKSTO": "19859", "STATIONNAM": "Bonbeach", "STATIONTYP": "Unmanned", "ZONES": "2", "STOPMODENA": "Train" }, "geometry": { "type": "Point", "coordinates": [ 145.119681999453263, -38.062944999779639 ] } },
{ "type": "Feature", "properties": { "METLINKSTO": "19860", "STATIONNAM": "Chelsea", "STATIONTYP": "Unmanned", "ZONES": "2", "STOPMODENA": "Train" }, "geometry": { "type": "Point", "coordinates": [ 145.116035999675518, -38.051958999568086 ] } },
{ "type": "Feature", "properties": { "METLINKSTO": "19861", "STATIONNAM": "Edithvale", "STATIONTYP": "Unmanned", "ZONES": "2", "STOPMODENA": "Train" }, "geometry": { "type": "Point", "coordinates": [ 145.108538999263885, -38.038053999484802 ] } },
{ "type": "Feature", "properties": { "METLINKSTO": "19862", "STATIONNAM": "Aspendale", "STATIONTYP": "Unmanned", "ZONES": "2", "STOPMODENA": "Train" }, "geometry": { "type": "Point", "coordinates": [ 145.102151000017869, -38.027222000296192 ] } },
{ "type": "Feature", "properties": { "METLINKSTO": "19863", "STATIONNAM": "Mordialloc", "STATIONTYP": "Premium", "ZONES": "2", "STOPMODENA": "Train" }, "geometry": { "type": "Point", "coordinates": [ 145.087655999457752, -38.006587000151214 ] } },
{ "type": "Feature", "properties": { "METLINKSTO": "19864", "STATIONNAM": "Parkdale", "STATIONTYP": "Unmanned", "ZONES": "2", "STOPMODENA": "Train" }, "geometry": { "type": "Point", "coordinates": [ 145.07632999937411, -37.99307700021393 ] } },
{ "type": "Feature", "properties": { "METLINKSTO": "19865", "STATIONNAM": "Mentone", "STATIONTYP": "Premium", "ZONES": "2", "STOPMODENA": "Train" }, "geometry": { "type": "Point", "coordinates": [ 145.065170999774324, -37.981864999361477 ] } },
{ "type": "Feature", "properties": { "METLINKSTO": "19866", "STATIONNAM": "Cheltenham", "STATIONTYP": "Premium", "ZONES": "2", "STOPMODENA": "Train" }, "geometry": { "type": "Point", "coordinates": [ 145.054557000726419, -37.966653000758242 ] } },
{ "type": "Feature", "properties": { "METLINKSTO": "19867", "STATIONNAM": "Upper Ferntree Gully", "STATIONTYP": "Premium", "ZONES": "2", "STOPMODENA": "Train" }, "geometry": { "type": "Point", "coordinates": [ 145.307525000043768, -37.892672999867401 ] } },
{ "type": "Feature", "properties": { "METLINKSTO": "19868", "STATIONNAM": "Ferntree Gully", "STATIONTYP": "Premium", "ZONES": "2", "STOPMODENA": "Train" }, "geometry": { "type": "Point", "coordinates": [ 145.295254000412513, -37.881697000316471 ] } },
{ "type": "Feature", "properties": { "METLINKSTO": "19869", "STATIONNAM": "Boronia", "STATIONTYP": "Premium", "ZONES": "2", "STOPMODENA": "Train" }, "geometry": { "type": "Point", "coordinates": [ 145.284380999870137, -37.860452999409866 ] } },
{ "type": "Feature", "properties": { "METLINKSTO": "19870", "STATIONNAM": "Bayswater", "STATIONTYP": "Premium", "ZONES": "2", "STOPMODENA": "Train" }, "geometry": { "type": "Point", "coordinates": [ 145.268137000635164, -37.841727999936573 ] } },
{ "type": "Feature", "properties": { "METLINKSTO": "19871", "STATIONNAM": "Heathmont", "STATIONTYP": "Unmanned", "ZONES": "2", "STOPMODENA": "Train" }, "geometry": { "type": "Point", "coordinates": [ 145.244553000177831, -37.828317999727453 ] } },
{ "type": "Feature", "properties": { "METLINKSTO": "19872", "STATIONNAM": "Highett", "STATIONTYP": "Unmanned", "ZONES": "2", "STOPMODENA": "Train" }, "geometry": { "type": "Point", "coordinates": [ 145.04187200011134, -37.948425999841682 ] } },
{ "type": "Feature", "properties": { "METLINKSTO": "19873", "STATIONNAM": "Glen Waverley", "STATIONTYP": "Premium", "ZONES": "2", "STOPMODENA": "Train" }, "geometry": { "type": "Point", "coordinates": [ 145.162062999541604, -37.879501999763256 ] } },
{ "type": "Feature", "properties": { "METLINKSTO": "19874", "STATIONNAM": "Syndal", "STATIONTYP": "Host", "ZONES": "2", "STOPMODENA": "Train" }, "geometry": { "type": "Point", "coordinates": [ 145.14977600007586, -37.876227999582028 ] } },
{ "type": "Feature", "properties": { "METLINKSTO": "19875", "STATIONNAM": "Mount Waverley", "STATIONTYP": "Premium", "ZONES": "2", "STOPMODENA": "Train" }, "geometry": { "type": "Point", "coordinates": [ 145.12805700066744, -37.875250999512168 ] } },
{ "type": "Feature", "properties": { "METLINKSTO": "19876", "STATIONNAM": "Lilydale", "STATIONTYP": "Premium", "ZONES": "2", "STOPMODENA": "Train" }, "geometry": { "type": "Point", "coordinates": [ 145.347711999978372, -37.755515999600924 ] } },
{ "type": "Feature", "properties": { "METLINKSTO": "19877", "STATIONNAM": "Mooroolbark", "STATIONTYP": "Premium", "ZONES": "2", "STOPMODENA": "Train" }, "geometry": { "type": "Point", "coordinates": [ 145.312403999695078, -37.784748999515848 ] } },
{ "type": "Feature", "properties": { "METLINKSTO": "19878", "STATIONNAM": "Croydon", "STATIONTYP": "Premium", "ZONES": "2", "STOPMODENA": "Train" }, "geometry": { "type": "Point", "coordinates": [ 145.280593999913833, -37.795441000341079 ] } },
{ "type": "Feature", "properties": { "METLINKSTO": "19879", "STATIONNAM": "Ringwood East", "STATIONTYP": "Unmanned", "ZONES": "2", "STOPMODENA": "Train" }, "geometry": { "type": "Point", "coordinates": [ 145.250192999877214, -37.811967999197599 ] } },
{ "type": "Feature", "properties": { "METLINKSTO": "19880", "STATIONNAM": "Pakenham", "STATIONTYP": "Premium", "ZONES": "2", "STOPMODENA": "Train" }, "geometry": { "type": "Point", "coordinates": [ 145.486373999606712, -38.080611999786235 ] } },
{ "type": "Feature", "properties": { "METLINKSTO": "19881", "STATIONNAM": "Officer", "STATIONTYP": "Unmanned", "ZONES": "2", "STOPMODENA": "Train" }, "geometry": { "type": "Point", "coordinates": [ 145.410991999763127, -38.066142000034532 ] } },
{ "type": "Feature", "properties": { "METLINKSTO": "19882", "STATIONNAM": "Beaconsfield", "STATIONTYP": "Unmanned", "ZONES": "2", "STOPMODENA": "Train" }, "geometry": { "type": "Point", "coordinates": [ 145.366068999826041, -38.050828000242497 ] } },
{ "type": "Feature", "properties": { "METLINKSTO": "19883", "STATIONNAM": "Berwick", "STATIONTYP": "Premium", "ZONES": "2", "STOPMODENA": "Train" }, "geometry": { "type": "Point", "coordinates": [ 145.345721000219612, -38.040409999782845 ] } },
{ "type": "Feature", "properties": { "METLINKSTO": "19884", "STATIONNAM": "Narre Warren", "STATIONTYP": "Premium", "ZONES": "2", "STOPMODENA": "Train" }, "geometry": { "type": "Point", "coordinates": [ 145.303966999279254, -38.027809000567139 ] } },
{ "type": "Feature", "properties": { "METLINKSTO": "19885", "STATIONNAM": "Hallam", "STATIONTYP": "Unmanned", "ZONES": "2", "STOPMODENA": "Train" }, "geometry": { "type": "Point", "coordinates": [ 145.269772999671346, -38.01774299982138 ] } },
{ "type": "Feature", "properties": { "METLINKSTO": "19886", "STATIONNAM": "Cranbourne", "STATIONTYP": "Premium", "ZONES": "2", "STOPMODENA": "Train" }, "geometry": { "type": "Point", "coordinates": [ 145.280594999797302, -38.099539999787993 ] } },
{ "type": "Feature", "properties": { "METLINKSTO": "19887", "STATIONNAM": "Merinda Park", "STATIONTYP": "Unmanned", "ZONES": "2", "STOPMODENA": "Train" }, "geometry": { "type": "Point", "coordinates": [ 145.26350700030963, -38.079002999809582 ] } },
{ "type": "Feature", "properties": { "METLINKSTO": "19888", "STATIONNAM": "Dandenong", "STATIONTYP": "Premium", "ZONES": "2", "STOPMODENA": "Train" }, "geometry": { "type": "Point", "coordinates": [ 145.209727999929925, -37.989967999712761 ] } },
{ "type": "Feature", "properties": { "METLINKSTO": "19889", "STATIONNAM": "Yarraman", "STATIONTYP": "Unmanned", "ZONES": "2", "STOPMODENA": "Train" }, "geometry": { "type": "Point", "coordinates": [ 145.191596999791017, -37.978253000488088 ] } },
{ "type": "Feature", "properties": { "METLINKSTO": "19890", "STATIONNAM": "Noble Park", "STATIONTYP": "Premium", "ZONES": "2", "STOPMODENA": "Train" }, "geometry": { "type": "Point", "coordinates": [ 145.176935999947034, -37.967236000699799 ] } },
{ "type": "Feature", "properties": { "METLINKSTO": "19891", "STATIONNAM": "Sandown Park", "STATIONTYP": "Host", "ZONES": "2", "STOPMODENA": "Train" }, "geometry": { "type": "Point", "coordinates": [ 145.162822999618271, -37.956501000275139 ] } },
{ "type": "Feature", "properties": { "METLINKSTO": "19892", "STATIONNAM": "East Camberwell", "STATIONTYP": "Unmanned", "ZONES": "1", "STOPMODENA": "Train" }, "geometry": { "type": "Point", "coordinates": [ 145.068189000273691, -37.825891999208366 ] } },
{ "type": "Feature", "properties": { "METLINKSTO": "19893", "STATIONNAM": "Canterbury", "STATIONTYP": "Host", "ZONES": "1,2", "STOPMODENA": "Train" }, "geometry": { "type": "Point", "coordinates": [ 145.081226000379075, -37.824488999868315 ] } },
{ "type": "Feature", "properties": { "METLINKSTO": "19894", "STATIONNAM": "Chatham", "STATIONTYP": "Unmanned", "ZONES": "1,2", "STOPMODENA": "Train" }, "geometry": { "type": "Point", "coordinates": [ 145.088653000066671, -37.824304000520549 ] } },
{ "type": "Feature", "properties": { "METLINKSTO": "19895", "STATIONNAM": "Surrey Hills", "STATIONTYP": "Premium", "ZONES": "1,2", "STOPMODENA": "Train" }, "geometry": { "type": "Point", "coordinates": [ 145.098777999685922, -37.824144000068472 ] } },
{ "type": "Feature", "properties": { "METLINKSTO": "19896", "STATIONNAM": "Mont Albert", "STATIONTYP": "Unmanned", "ZONES": "1,2", "STOPMODENA": "Train" }, "geometry": { "type": "Point", "coordinates": [ 145.105532999965135, -37.819427000154597 ] } },
{ "type": "Feature", "properties": { "METLINKSTO": "19897", "STATIONNAM": "Laburnum", "STATIONTYP": "Unmanned", "ZONES": "2", "STOPMODENA": "Train" }, "geometry": { "type": "Point", "coordinates": [ 145.140705000483337, -37.820777000553363 ] } },
{ "type": "Feature", "properties": { "METLINKSTO": "19898", "STATIONNAM": "Blackburn", "STATIONTYP": "Premium", "ZONES": "2", "STOPMODENA": "Train" }, "geometry": { "type": "Point", "coordinates": [ 145.15001400056093, -37.82006899993209 ] } },
{ "type": "Feature", "properties": { "METLINKSTO": "19899", "STATIONNAM": "Nunawading", "STATIONTYP": "Premium", "ZONES": "2", "STOPMODENA": "Train" }, "geometry": { "type": "Point", "coordinates": [ 145.17489000011588, -37.820599000130329 ] } },
{ "type": "Feature", "properties": { "METLINKSTO": "19900", "STATIONNAM": "Mitcham", "STATIONTYP": "Premium", "ZONES": "2", "STOPMODENA": "Train" }, "geometry": { "type": "Point", "coordinates": [ 145.19197300029137, -37.818012999438466 ] } },
{ "type": "Feature", "properties": { "METLINKSTO": "19901", "STATIONNAM": "Heatherdale", "STATIONTYP": "Host", "ZONES": "2", "STOPMODENA": "Train" }, "geometry": { "type": "Point", "coordinates": [ 145.212785000014662, -37.818896000189135 ] } },
{ "type": "Feature", "properties": { "METLINKSTO": "19902", "STATIONNAM": "Ringwood", "STATIONTYP": "Premium", "ZONES": "2", "STOPMODENA": "Train" }, "geometry": { "type": "Point", "coordinates": [ 145.228970000512675, -37.815889999404703 ] } },
{ "type": "Feature", "properties": { "METLINKSTO": "19903", "STATIONNAM": "Auburn", "STATIONTYP": "Host", "ZONES": "1", "STOPMODENA": "Train" }, "geometry": { "type": "Point", "coordinates": [ 145.04584199970779, -37.822398000588286 ] } },
{ "type": "Feature", "properties": { "METLINKSTO": "19904", "STATIONNAM": "Glenferrie", "STATIONTYP": "Premium", "ZONES": "1", "STOPMODENA": "Train" }, "geometry": { "type": "Point", "coordinates": [ 145.036437999785591, -37.821466000065904 ] } },
{ "type": "Feature", "properties": { "METLINKSTO": "19905", "STATIONNAM": "Hawthorn", "STATIONTYP": "Host", "ZONES": "1", "STOPMODENA": "Train" }, "geometry": { "type": "Point", "coordinates": [ 145.022897000308404, -37.821824000423831 ] } },
{ "type": "Feature", "properties": { "METLINKSTO": "19906", "STATIONNAM": "Burnley", "STATIONTYP": "Premium", "ZONES": "1", "STOPMODENA": "Train" }, "geometry": { "type": "Point", "coordinates": [ 145.007553000292006, -37.827557999982766 ] } },
{ "type": "Feature", "properties": { "METLINKSTO": "19907", "STATIONNAM": "East Richmond", "STATIONTYP": "Unmanned", "ZONES": "1", "STOPMODENA": "Train" }, "geometry": { "type": "Point", "coordinates": [ 144.997067999636101, -37.82640299947839 ] } },
{ "type": "Feature", "properties": { "METLINKSTO": "19908", "STATIONNAM": "Richmond", "STATIONTYP": "Premium", "ZONES": "1", "STOPMODENA": "Train" }, "geometry": { "type": "Point", "coordinates": [ 144.990160999798661, -37.824072000099569 ] } },
{ "type": "Feature", "properties": { "METLINKSTO": "19909", "STATIONNAM": "Heyington", "STATIONTYP": "Unmanned", "ZONES": "1", "STOPMODENA": "Train" }, "geometry": { "type": "Point", "coordinates": [ 145.022633000230002, -37.834669999984413 ] } },
{ "type": "Feature", "properties": { "METLINKSTO": "19910", "STATIONNAM": "Kooyong", "STATIONTYP": "Unmanned", "ZONES": "1", "STOPMODENA": "Train" }, "geometry": { "type": "Point", "coordinates": [ 145.033550000459428, -37.839926000542569 ] } },
{ "type": "Feature", "properties": { "METLINKSTO": "19911", "STATIONNAM": "Tooronga", "STATIONTYP": "Host", "ZONES": "1", "STOPMODENA": "Train" }, "geometry": { "type": "Point", "coordinates": [ 145.04173399959069, -37.849370000282548 ] } },
{ "type": "Feature", "properties": { "METLINKSTO": "19912", "STATIONNAM": "Gardiner", "STATIONTYP": "Host", "ZONES": "1", "STOPMODENA": "Train" }, "geometry": { "type": "Point", "coordinates": [ 145.051660000338217, -37.853283000456862 ] } },
{ "type": "Feature", "properties": { "METLINKSTO": "19913", "STATIONNAM": "Springvale", "STATIONTYP": "Premium", "ZONES": "2", "STOPMODENA": "Train" }, "geometry": { "type": "Point", "coordinates": [ 145.153450999052069, -37.949511999447481 ] } },
{ "type": "Feature", "properties": { "METLINKSTO": "19914", "STATIONNAM": "Westall", "STATIONTYP": "Premium", "ZONES": "2", "STOPMODENA": "Train" }, "geometry": { "type": "Point", "coordinates": [ 145.138833999916358, -37.938492000827786 ] } },
{ "type": "Feature", "properties": { "METLINKSTO": "19915", "STATIONNAM": "Clayton", "STATIONTYP": "Premium", "ZONES": "2", "STOPMODENA": "Train" }, "geometry": { "type": "Point", "coordinates": [ 145.120531000680899, -37.924683000401927 ] } },
{ "type": "Feature", "properties": { "METLINKSTO": "19916", "STATIONNAM": "Huntingdale", "STATIONTYP": "Host", "ZONES": "1,2", "STOPMODENA": "Train" }, "geometry": { "type": "Point", "coordinates": [ 145.102363999512335, -37.91101699955896 ] } },
{ "type": "Feature", "properties": { "METLINKSTO": "19917", "STATIONNAM": "Oakleigh", "STATIONTYP": "Premium", "ZONES": "1,2", "STOPMODENA": "Train" }, "geometry": { "type": "Point", "coordinates": [ 145.088312999862723, -37.900367999864983 ] } },
{ "type": "Feature", "properties": { "METLINKSTO": "19918", "STATIONNAM": "Hughesdale", "STATIONTYP": "Host", "ZONES": "1,2", "STOPMODENA": "Train" }, "geometry": { "type": "Point", "coordinates": [ 145.077638999724456, -37.89487699964512 ] } },
{ "type": "Feature", "properties": { "METLINKSTO": "19919", "STATIONNAM": "Murrumbeena", "STATIONTYP": "Host", "ZONES": "1", "STOPMODENA": "Train" }, "geometry": { "type": "Point", "coordinates": [ 145.067378000154434, -37.890196000270763 ] } },
{ "type": "Feature", "properties": { "METLINKSTO": "19920", "STATIONNAM": "Carnegie (Temporarily Closed)", "STATIONTYP": "Host", "ZONES": "1", "STOPMODENA": "Train" }, "geometry": { "type": "Point", "coordinates": [ 145.058575999876865, -37.886237000001287 ] } },
{ "type": "Feature", "properties": { "METLINKSTO": "19921", "STATIONNAM": "Werribee", "STATIONTYP": "Premium", "ZONES": "2", "STOPMODENA": "Train" }, "geometry": { "type": "Point", "coordinates": [ 144.661115999410072, -37.899381999533169 ] } },
{ "type": "Feature", "properties": { "METLINKSTO": "19922", "STATIONNAM": "Hoppers Crossing", "STATIONTYP": "Host", "ZONES": "2", "STOPMODENA": "Train" }, "geometry": { "type": "Point", "coordinates": [ 144.700959999844486, -37.883279000563348 ] } },
{ "type": "Feature", "properties": { "METLINKSTO": "19923", "STATIONNAM": "Laverton", "STATIONTYP": "Premium", "ZONES": "1,2", "STOPMODENA": "Train" }, "geometry": { "type": "Point", "coordinates": [ 144.772615000012792, -37.863692999742653 ] } },
{ "type": "Feature", "properties": { "METLINKSTO": "19924", "STATIONNAM": "Aircraft", "STATIONTYP": "Unmanned", "ZONES": "2", "STOPMODENA": "Train" }, "geometry": { "type": "Point", "coordinates": [ 144.760808999855612, -37.866602000097643 ] } },
{ "type": "Feature", "properties": { "METLINKSTO": "19925", "STATIONNAM": "Westona", "STATIONTYP": "Unmanned", "ZONES": "1,2", "STOPMODENA": "Train" }, "geometry": { "type": "Point", "coordinates": [ 144.813489000242782, -37.865165000321483 ] } },
{ "type": "Feature", "properties": { "METLINKSTO": "19926", "STATIONNAM": "Altona", "STATIONTYP": "Unmanned", "ZONES": "1,2", "STOPMODENA": "Train" }, "geometry": { "type": "Point", "coordinates": [ 144.829646999516825, -37.867150999955506 ] } },
{ "type": "Feature", "properties": { "METLINKSTO": "19927", "STATIONNAM": "Seaholme", "STATIONTYP": "Unmanned", "ZONES": "1", "STOPMODENA": "Train" }, "geometry": { "type": "Point", "coordinates": [ 144.840956999073256, -37.867842999413874 ] } },
{ "type": "Feature", "properties": { "METLINKSTO": "19928", "STATIONNAM": "Westgarth", "STATIONTYP": "Unmanned", "ZONES": "1", "STOPMODENA": "Train" }, "geometry": { "type": "Point", "coordinates": [ 144.99923099986097, -37.78061800011141 ] } },
{ "type": "Feature", "properties": { "METLINKSTO": "19929", "STATIONNAM": "Dennis", "STATIONTYP": "Unmanned", "ZONES": "1", "STOPMODENA": "Train" }, "geometry": { "type": "Point", "coordinates": [ 145.008239999971494, -37.779183000107736 ] } },
{ "type": "Feature", "properties": { "METLINKSTO": "19930", "STATIONNAM": "Fairfield", "STATIONTYP": "Host", "ZONES": "1", "STOPMODENA": "Train" }, "geometry": { "type": "Point", "coordinates": [ 145.016903000054214, -37.779173999910249 ] } },
{ "type": "Feature", "properties": { "METLINKSTO": "19931", "STATIONNAM": "Alphington", "STATIONTYP": "Unmanned", "ZONES": "1", "STOPMODENA": "Train" }, "geometry": { "type": "Point", "coordinates": [ 145.031251000005227, -37.778396000190739 ] } },
{ "type": "Feature", "properties": { "METLINKSTO": "19932", "STATIONNAM": "Darebin", "STATIONTYP": "Unmanned", "ZONES": "1", "STOPMODENA": "Train" }, "geometry": { "type": "Point", "coordinates": [ 145.038475999962571, -37.774962000150985 ] } },
{ "type": "Feature", "properties": { "METLINKSTO": "19933", "STATIONNAM": "Ivanhoe", "STATIONTYP": "Premium", "ZONES": "1,2", "STOPMODENA": "Train" }, "geometry": { "type": "Point", "coordinates": [ 145.045425999881587, -37.768898000140815 ] } },
{ "type": "Feature", "properties": { "METLINKSTO": "19934", "STATIONNAM": "Eaglemont", "STATIONTYP": "Unmanned", "ZONES": "1,2", "STOPMODENA": "Train" }, "geometry": { "type": "Point", "coordinates": [ 145.053946000374765, -37.763585999306734 ] } },
{ "type": "Feature", "properties": { "METLINKSTO": "19935", "STATIONNAM": "Heidelberg", "STATIONTYP": "Premium", "ZONES": "1,2", "STOPMODENA": "Train" }, "geometry": { "type": "Point", "coordinates": [ 145.060690000313855, -37.757074999663587 ] } },
{ "type": "Feature", "properties": { "METLINKSTO": "19936", "STATIONNAM": "Rosanna", "STATIONTYP": "Unmanned", "ZONES": "2", "STOPMODENA": "Train" }, "geometry": { "type": "Point", "coordinates": [ 145.06614000036177, -37.742874999827514 ] } },
{ "type": "Feature", "properties": { "METLINKSTO": "19937", "STATIONNAM": "Moorabbin", "STATIONTYP": "Premium", "ZONES": "2", "STOPMODENA": "Train" }, "geometry": { "type": "Point", "coordinates": [ 145.036739000114352, -37.934349000023502 ] } },
{ "type": "Feature", "properties": { "METLINKSTO": "19938", "STATIONNAM": "Patterson", "STATIONTYP": "Unmanned", "ZONES": "2", "STOPMODENA": "Train" }, "geometry": { "type": "Point", "coordinates": [ 145.035467999848208, -37.925146000457929 ] } },
{ "type": "Feature", "properties": { "METLINKSTO": "19939", "STATIONNAM": "Bentleigh", "STATIONTYP": "Premium", "ZONES": "1,2", "STOPMODENA": "Train" }, "geometry": { "type": "Point", "coordinates": [ 145.036990999539654, -37.917427000284128 ] } },
{ "type": "Feature", "properties": { "METLINKSTO": "19940", "STATIONNAM": "McKinnon", "STATIONTYP": "Host", "ZONES": "1,2", "STOPMODENA": "Train" }, "geometry": { "type": "Point", "coordinates": [ 145.038302000349489, -37.910305999787376 ] } },
{ "type": "Feature", "properties": { "METLINKSTO": "19941", "STATIONNAM": "Ormond", "STATIONTYP": "Host", "ZONES": "1,2", "STOPMODENA": "Train" }, "geometry": { "type": "Point", "coordinates": [ 145.039607999515056, -37.903211000668826 ] } },
{ "type": "Feature", "properties": { "METLINKSTO": "19942", "STATIONNAM": "Glenhuntly", "STATIONTYP": "Host", "ZONES": "1", "STOPMODENA": "Train" }, "geometry": { "type": "Point", "coordinates": [ 145.042218000218526, -37.889717000403692 ] } },
{ "type": "Feature", "properties": { "METLINKSTO": "19943", "STATIONNAM": "Caulfield", "STATIONTYP": "Premium", "ZONES": "1", "STOPMODENA": "Train" }, "geometry": { "type": "Point", "coordinates": [ 145.042522000467528, -37.877457000186354 ] } },
{ "type": "Feature", "properties": { "METLINKSTO": "19944", "STATIONNAM": "Malvern", "STATIONTYP": "Host", "ZONES": "1", "STOPMODENA": "Train" }, "geometry": { "type": "Point", "coordinates": [ 145.029293000217649, -37.866249999801681 ] } },
{ "type": "Feature", "properties": { "METLINKSTO": "19945", "STATIONNAM": "Armadale", "STATIONTYP": "Host", "ZONES": "1", "STOPMODENA": "Train" }, "geometry": { "type": "Point", "coordinates": [ 145.019327999795252, -37.856451999876469 ] } },
{ "type": "Feature", "properties": { "METLINKSTO": "19946", "STATIONNAM": "Toorak", "STATIONTYP": "Host", "ZONES": "1", "STOPMODENA": "Train" }, "geometry": { "type": "Point", "coordinates": [ 145.013907000260133, -37.850770000038054 ] } },
{ "type": "Feature", "properties": { "METLINKSTO": "19947", "STATIONNAM": "Hawksburn", "STATIONTYP": "Host", "ZONES": "1", "STOPMODENA": "Train" }, "geometry": { "type": "Point", "coordinates": [ 145.002137000033599, -37.844593999870348 ] } },
{ "type": "Feature", "properties": { "METLINKSTO": "19948", "STATIONNAM": "Sandringham", "STATIONTYP": "Premium", "ZONES": "2", "STOPMODENA": "Train" }, "geometry": { "type": "Point", "coordinates": [ 145.004565999584258, -37.950328000454732 ] } },
{ "type": "Feature", "properties": { "METLINKSTO": "19949", "STATIONNAM": "Hampton", "STATIONTYP": "Unmanned", "ZONES": "2", "STOPMODENA": "Train" }, "geometry": { "type": "Point", "coordinates": [ 145.001466000143893, -37.937973000042234 ] } },
{ "type": "Feature", "properties": { "METLINKSTO": "19950", "STATIONNAM": "Brighton Beach", "STATIONTYP": "Premium", "ZONES": "1,2", "STOPMODENA": "Train" }, "geometry": { "type": "Point", "coordinates": [ 144.989157000387081, -37.926481999377586 ] } },
{ "type": "Feature", "properties": { "METLINKSTO": "19951", "STATIONNAM": "Middle Brighton", "STATIONTYP": "Host", "ZONES": "1,2", "STOPMODENA": "Train" }, "geometry": { "type": "Point", "coordinates": [ 144.996297999617042, -37.915134999650704 ] } },
{ "type": "Feature", "properties": { "METLINKSTO": "19952", "STATIONNAM": "North Brighton", "STATIONTYP": "Host", "ZONES": "1,2", "STOPMODENA": "Train" }, "geometry": { "type": "Point", "coordinates": [ 145.002604000857076, -37.904883000145773 ] } },
{ "type": "Feature", "properties": { "METLINKSTO": "19953", "STATIONNAM": "Gardenvale", "STATIONTYP": "Unmanned", "ZONES": "1", "STOPMODENA": "Train" }, "geometry": { "type": "Point", "coordinates": [ 145.004165000230159, -37.896693000271519 ] } },
{ "type": "Feature", "properties": { "METLINKSTO": "19954", "STATIONNAM": "Elsternwick", "STATIONTYP": "Premium", "ZONES": "1", "STOPMODENA": "Train" }, "geometry": { "type": "Point", "coordinates": [ 145.000902000251983, -37.884751999992723 ] } },
{ "type": "Feature", "properties": { "METLINKSTO": "19955", "STATIONNAM": "Ripponlea", "STATIONTYP": "Host", "ZONES": "1", "STOPMODENA": "Train" }, "geometry": { "type": "Point", "coordinates": [ 144.995234000306084, -37.875908000051254 ] } },
{ "type": "Feature", "properties": { "METLINKSTO": "19956", "STATIONNAM": "Balaclava", "STATIONTYP": "Premium", "ZONES": "1", "STOPMODENA": "Train" }, "geometry": { "type": "Point", "coordinates": [ 144.993514000452791, -37.869485999966322 ] } },
{ "type": "Feature", "properties": { "METLINKSTO": "19957", "STATIONNAM": "Windsor", "STATIONTYP": "Host", "ZONES": "1", "STOPMODENA": "Train" }, "geometry": { "type": "Point", "coordinates": [ 144.992033000159807, -37.856050999816027 ] } },
{ "type": "Feature", "properties": { "METLINKSTO": "19958", "STATIONNAM": "Prahran", "STATIONTYP": "Host", "ZONES": "1", "STOPMODENA": "Train" }, "geometry": { "type": "Point", "coordinates": [ 144.989859999760512, -37.849515999634463 ] } },
{ "type": "Feature", "properties": { "METLINKSTO": "19959", "STATIONNAM": "South Yarra", "STATIONTYP": "Premium", "ZONES": "1", "STOPMODENA": "Train" }, "geometry": { "type": "Point", "coordinates": [ 144.992340999997623, -37.838445000126733 ] } },
{ "type": "Feature", "properties": { "METLINKSTO": "19960", "STATIONNAM": "Upfield", "STATIONTYP": "Premium", "ZONES": "2", "STOPMODENA": "Train" }, "geometry": { "type": "Point", "coordinates": [ 144.946744999970775, -37.666075999783523 ] } },
{ "type": "Feature", "properties": { "METLINKSTO": "19961", "STATIONNAM": "Gowrie", "STATIONTYP": "Premium", "ZONES": "2", "STOPMODENA": "Train" }, "geometry": { "type": "Point", "coordinates": [ 144.958876999993294, -37.700675999665052 ] } },
{ "type": "Feature", "properties": { "METLINKSTO": "19962", "STATIONNAM": "Fawkner", "STATIONTYP": "Unmanned", "ZONES": "1,2", "STOPMODENA": "Train" }, "geometry": { "type": "Point", "coordinates": [ 144.96054900020124, -37.714621999962887 ] } },
{ "type": "Feature", "properties": { "METLINKSTO": "19963", "STATIONNAM": "Merlynston", "STATIONTYP": "Host", "ZONES": "1,2", "STOPMODENA": "Train" }, "geometry": { "type": "Point", "coordinates": [ 144.961311999596717, -37.720936999761157 ] } },
{ "type": "Feature", "properties": { "METLINKSTO": "19964", "STATIONNAM": "Batman", "STATIONTYP": "Unmanned", "ZONES": "1,2", "STOPMODENA": "Train" }, "geometry": { "type": "Point", "coordinates": [ 144.962837000272032, -37.733523999879537 ] } },
{ "type": "Feature", "properties": { "METLINKSTO": "19965", "STATIONNAM": "Coburg", "STATIONTYP": "Premium", "ZONES": "1", "STOPMODENA": "Train" }, "geometry": { "type": "Point", "coordinates": [ 144.963341999869698, -37.74234099980977 ] } },
{ "type": "Feature", "properties": { "METLINKSTO": "19966", "STATIONNAM": "Moreland", "STATIONTYP": "Unmanned", "ZONES": "1", "STOPMODENA": "Train" }, "geometry": { "type": "Point", "coordinates": [ 144.961823000191146, -37.754480999910257 ] } },
{ "type": "Feature", "properties": { "METLINKSTO": "19967", "STATIONNAM": "Anstey", "STATIONTYP": "Unmanned", "ZONES": "1", "STOPMODENA": "Train" }, "geometry": { "type": "Point", "coordinates": [ 144.960685999706953, -37.761239000595154 ] } },
{ "type": "Feature", "properties": { "METLINKSTO": "19968", "STATIONNAM": "Brunswick", "STATIONTYP": "Unmanned", "ZONES": "1", "STOPMODENA": "Train" }, "geometry": { "type": "Point", "coordinates": [ 144.959590999622435, -37.767717999891573 ] } },
{ "type": "Feature", "properties": { "METLINKSTO": "19969", "STATIONNAM": "Jewell", "STATIONTYP": "Unmanned", "ZONES": "1", "STOPMODENA": "Train" }, "geometry": { "type": "Point", "coordinates": [ 144.958715000416646, -37.774984000114749 ] } },
{ "type": "Feature", "properties": { "METLINKSTO": "19970", "STATIONNAM": "Royal Park", "STATIONTYP": "Unmanned", "ZONES": "1", "STOPMODENA": "Train" }, "geometry": { "type": "Point", "coordinates": [ 144.952298999757204, -37.781192000195198 ] } },
{ "type": "Feature", "properties": { "METLINKSTO": "19971", "STATIONNAM": "Flemington Bridge", "STATIONTYP": "Unmanned", "ZONES": "1", "STOPMODENA": "Train" }, "geometry": { "type": "Point", "coordinates": [ 144.939321000533653, -37.788137000057034 ] } },
{ "type": "Feature", "properties": { "METLINKSTO": "19972", "STATIONNAM": "Macaulay", "STATIONTYP": "Unmanned", "ZONES": "1", "STOPMODENA": "Train" }, "geometry": { "type": "Point", "coordinates": [ 144.936169999624212, -37.794262999576368 ] } },
{ "type": "Feature", "properties": { "METLINKSTO": "19973", "STATIONNAM": "North Melbourne", "STATIONTYP": "Premium", "ZONES": "1", "STOPMODENA": "Train" }, "geometry": { "type": "Point", "coordinates": [ 144.941508999257223, -37.806309000265891 ] } },
{ "type": "Feature", "properties": { "METLINKSTO": "19974", "STATIONNAM": "Clifton Hill", "STATIONTYP": "Premium", "ZONES": "1", "STOPMODENA": "Train" }, "geometry": { "type": "Point", "coordinates": [ 144.995416999596301, -37.788654000475255 ] } },
{ "type": "Feature", "properties": { "METLINKSTO": "19975", "STATIONNAM": "Victoria Park", "STATIONTYP": "Unmanned", "ZONES": "1", "STOPMODENA": "Train" }, "geometry": { "type": "Point", "coordinates": [ 144.994447000230707, -37.799154999749213 ] } },
{ "type": "Feature", "properties": { "METLINKSTO": "19976", "STATIONNAM": "Collingwood", "STATIONTYP": "Unmanned", "ZONES": "1", "STOPMODENA": "Train" }, "geometry": { "type": "Point", "coordinates": [ 144.993745000245895, -37.804523000229096 ] } },
{ "type": "Feature", "properties": { "METLINKSTO": "19977", "STATIONNAM": "North Richmond", "STATIONTYP": "Unmanned", "ZONES": "1", "STOPMODENA": "Train" }, "geometry": { "type": "Point", "coordinates": [ 144.992500000725613, -37.810396000043227 ] } },
{ "type": "Feature", "properties": { "METLINKSTO": "19978", "STATIONNAM": "West Richmond", "STATIONTYP": "Unmanned", "ZONES": "1", "STOPMODENA": "Train" }, "geometry": { "type": "Point", "coordinates": [ 144.991418000215134, -37.81494500008413 ] } },
{ "type": "Feature", "properties": { "METLINKSTO": "19979", "STATIONNAM": "Jolimont-MCG", "STATIONTYP": "Host", "ZONES": "1", "STOPMODENA": "Train" }, "geometry": { "type": "Point", "coordinates": [ 144.984095999771625, -37.816529999673698 ] } },
{ "type": "Feature", "properties": { "METLINKSTO": "19980", "STATIONNAM": "Melton", "STATIONTYP": " ", "ZONES": "2,Reg", "STOPMODENA": "V/Line Train" }, "geometry": { "type": "Point", "coordinates": [ 144.572525000459081, -37.703288999938486 ] } },
{ "type": "Feature", "properties": { "METLINKSTO": "19981", "STATIONNAM": "Rockbank", "STATIONTYP": " ", "ZONES": "2,Reg", "STOPMODENA": "V/Line Train" }, "geometry": { "type": "Point", "coordinates": [ 144.650630000106133, -37.72925800003145 ] } },
{ "type": "Feature", "properties": { "METLINKSTO": "19982", "STATIONNAM": "Deer Park", "STATIONTYP": " ", "ZONES": "2,Reg", "STOPMODENA": "V/Line Train" }, "geometry": { "type": "Point", "coordinates": [ 144.772307000205899, -37.777760000422411 ] } },
{ "type": "Feature", "properties": { "METLINKSTO": "19983", "STATIONNAM": "Macleod", "STATIONTYP": "Premium", "ZONES": "2", "STOPMODENA": "Train" }, "geometry": { "type": "Point", "coordinates": [ 145.069146999337619, -37.726010000162923 ] } },
{ "type": "Feature", "properties": { "METLINKSTO": "19984", "STATIONNAM": "Watsonia", "STATIONTYP": "Premium", "ZONES": "2", "STOPMODENA": "Train" }, "geometry": { "type": "Point", "coordinates": [ 145.083794999180299, -37.710954000203166 ] } },
{ "type": "Feature", "properties": { "METLINKSTO": "19985", "STATIONNAM": "Greensborough", "STATIONTYP": "Premium", "ZONES": "2", "STOPMODENA": "Train" }, "geometry": { "type": "Point", "coordinates": [ 145.108248999324786, -37.703949999988289 ] } },
{ "type": "Feature", "properties": { "METLINKSTO": "19986", "STATIONNAM": "Montmorency", "STATIONTYP": "Unmanned", "ZONES": "2", "STOPMODENA": "Train" }, "geometry": { "type": "Point", "coordinates": [ 145.121510999470615, -37.715296999949061 ] } },
{ "type": "Feature", "properties": { "METLINKSTO": "19987", "STATIONNAM": "Eltham", "STATIONTYP": "Premium", "ZONES": "2", "STOPMODENA": "Train" }, "geometry": { "type": "Point", "coordinates": [ 145.147826999650164, -37.713552000252569 ] } },
{ "type": "Feature", "properties": { "METLINKSTO": "19988", "STATIONNAM": "Diamond Creek", "STATIONTYP": "Unmanned", "ZONES": "2", "STOPMODENA": "Train" }, "geometry": { "type": "Point", "coordinates": [ 145.158508999786392, -37.673292999674672 ] } },
{ "type": "Feature", "properties": { "METLINKSTO": "19989", "STATIONNAM": "Wattle Glen", "STATIONTYP": "Unmanned", "ZONES": "2", "STOPMODENA": "Train" }, "geometry": { "type": "Point", "coordinates": [ 145.181618999482225, -37.663966000253687 ] } },
{ "type": "Feature", "properties": { "METLINKSTO": "19990", "STATIONNAM": "Hurstbridge", "STATIONTYP": "Host", "ZONES": "2", "STOPMODENA": "Train" }, "geometry": { "type": "Point", "coordinates": [ 145.192011999933897, -37.639401999823725 ] } },
{ "type": "Feature", "properties": { "METLINKSTO": "19991", "STATIONNAM": "Williamstown", "STATIONTYP": "Premium", "ZONES": "1", "STOPMODENA": "Train" }, "geometry": { "type": "Point", "coordinates": [ 144.905324000075211, -37.867754000540351 ] } },
{ "type": "Feature", "properties": { "METLINKSTO": "19992", "STATIONNAM": "Williamstown Beach", "STATIONTYP": "Unmanned", "ZONES": "1", "STOPMODENA": "Train" }, "geometry": { "type": "Point", "coordinates": [ 144.894487000510424, -37.863981999684896 ] } },
{ "type": "Feature", "properties": { "METLINKSTO": "19993", "STATIONNAM": "North Williamstown", "STATIONTYP": "Unmanned", "ZONES": "1", "STOPMODENA": "Train" }, "geometry": { "type": "Point", "coordinates": [ 144.889067000528797, -37.857330000025641 ] } },
{ "type": "Feature", "properties": { "METLINKSTO": "19994", "STATIONNAM": "Newport", "STATIONTYP": "Premium", "ZONES": "1", "STOPMODENA": "Train" }, "geometry": { "type": "Point", "coordinates": [ 144.883604000257066, -37.842714000290577 ] } },
{ "type": "Feature", "properties": { "METLINKSTO": "19995", "STATIONNAM": "Spotswood", "STATIONTYP": "Host", "ZONES": "1", "STOPMODENA": "Train" }, "geometry": { "type": "Point", "coordinates": [ 144.885934999957243, -37.830635000158836 ] } },
{ "type": "Feature", "properties": { "METLINKSTO": "19996", "STATIONNAM": "Yarraville", "STATIONTYP": "Host", "ZONES": "1", "STOPMODENA": "Train" }, "geometry": { "type": "Point", "coordinates": [ 144.889934000364775, -37.815848999914529 ] } },
{ "type": "Feature", "properties": { "METLINKSTO": "19997", "STATIONNAM": "Seddon", "STATIONTYP": "Unmanned", "ZONES": "1", "STOPMODENA": "Train" }, "geometry": { "type": "Point", "coordinates": [ 144.895667999625203, -37.809001000808877 ] } },
{ "type": "Feature", "properties": { "METLINKSTO": "19998", "STATIONNAM": "Sunbury", "STATIONTYP": " ", "ZONES": "2,Reg", "STOPMODENA": "V/Line Train" }, "geometry": { "type": "Point", "coordinates": [ 144.728166999349611, -37.579203000043655 ] } },
{ "type": "Feature", "properties": { "METLINKSTO": "19999", "STATIONNAM": "Diggers Rest", "STATIONTYP": " ", "ZONES": "2,Reg", "STOPMODENA": "V/Line Train" }, "geometry": { "type": "Point", "coordinates": [ 144.719917999389878, -37.627013000234584 ] } },
{ "type": "Feature", "properties": { "METLINKSTO": "20000", "STATIONNAM": "Watergardens", "STATIONTYP": "Premium", "ZONES": "2", "STOPMODENA": "Train" }, "geometry": { "type": "Point", "coordinates": [ 144.774185999348305, -37.701127999613703 ] } },
{ "type": "Feature", "properties": { "METLINKSTO": "20001", "STATIONNAM": "Keilor Plains", "STATIONTYP": "Unmanned", "ZONES": "2", "STOPMODENA": "Train" }, "geometry": { "type": "Point", "coordinates": [ 144.793732999865597, -37.729275999913838 ] } },
{ "type": "Feature", "properties": { "METLINKSTO": "20002", "STATIONNAM": "St Albans", "STATIONTYP": "Premium", "ZONES": "2", "STOPMODENA": "Train" }, "geometry": { "type": "Point", "coordinates": [ 144.800054999882548, -37.744859000696749 ] } },
{ "type": "Feature", "properties": { "METLINKSTO": "20003", "STATIONNAM": "Ginifer", "STATIONTYP": "Unmanned", "ZONES": "2", "STOPMODENA": "Train" }, "geometry": { "type": "Point", "coordinates": [ 144.809571000036925, -37.757508999791732 ] } },
{ "type": "Feature", "properties": { "METLINKSTO": "20004", "STATIONNAM": "Albion", "STATIONTYP": "Host", "ZONES": "1,2", "STOPMODENA": "Train" }, "geometry": { "type": "Point", "coordinates": [ 144.824709000064388, -37.777655000126792 ] } },
{ "type": "Feature", "properties": { "METLINKSTO": "20005", "STATIONNAM": "Epping", "STATIONTYP": "Premium", "ZONES": "2", "STOPMODENA": "Train" }, "geometry": { "type": "Point", "coordinates": [ 145.030118000395504, -37.652387999422011 ] } },
{ "type": "Feature", "properties": { "METLINKSTO": "20006", "STATIONNAM": "Lalor", "STATIONTYP": "Unmanned", "ZONES": "2", "STOPMODENA": "Train" }, "geometry": { "type": "Point", "coordinates": [ 145.017194999523667, -37.665852999934792 ] } },
{ "type": "Feature", "properties": { "METLINKSTO": "20007", "STATIONNAM": "Thomastown", "STATIONTYP": "Premium", "ZONES": "2", "STOPMODENA": "Train" }, "geometry": { "type": "Point", "coordinates": [ 145.01428399997593, -37.680334999560074 ] } },
{ "type": "Feature", "properties": { "METLINKSTO": "20008", "STATIONNAM": "Keon Park", "STATIONTYP": "Unmanned", "ZONES": "2", "STOPMODENA": "Train" }, "geometry": { "type": "Point", "coordinates": [ 145.011883000574244, -37.694867000352438 ] } },
{ "type": "Feature", "properties": { "METLINKSTO": "20009", "STATIONNAM": "Ruthven", "STATIONTYP": "Unmanned", "ZONES": "2", "STOPMODENA": "Train" }, "geometry": { "type": "Point", "coordinates": [ 145.009513999277232, -37.707899000460699 ] } },
{ "type": "Feature", "properties": { "METLINKSTO": "20010", "STATIONNAM": "Reservoir", "STATIONTYP": "Premium", "ZONES": "1,2", "STOPMODENA": "Train" }, "geometry": { "type": "Point", "coordinates": [ 145.00699300053904, -37.716888999823126 ] } },
{ "type": "Feature", "properties": { "METLINKSTO": "20011", "STATIONNAM": "Regent", "STATIONTYP": "Host", "ZONES": "1,2", "STOPMODENA": "Train" }, "geometry": { "type": "Point", "coordinates": [ 145.002770999979504, -37.72839999991006 ] } },
{ "type": "Feature", "properties": { "METLINKSTO": "20012", "STATIONNAM": "Preston", "STATIONTYP": "Premium", "ZONES": "1,2", "STOPMODENA": "Train" }, "geometry": { "type": "Point", "coordinates": [ 145.000527000355191, -37.738674000517662 ] } },
{ "type": "Feature", "properties": { "METLINKSTO": "20013", "STATIONNAM": "Bell", "STATIONTYP": "Premium", "ZONES": "1", "STOPMODENA": "Train" }, "geometry": { "type": "Point", "coordinates": [ 145.000152000034717, -37.74556599960826 ] } },
{ "type": "Feature", "properties": { "METLINKSTO": "20014", "STATIONNAM": "Thornbury", "STATIONTYP": "Unmanned", "ZONES": "1", "STOPMODENA": "Train" }, "geometry": { "type": "Point", "coordinates": [ 144.998575999967841, -37.75504799945351 ] } },
{ "type": "Feature", "properties": { "METLINKSTO": "20015", "STATIONNAM": "Croxton", "STATIONTYP": "Unmanned", "ZONES": "1", "STOPMODENA": "Train" }, "geometry": { "type": "Point", "coordinates": [ 144.997056999921483, -37.764097999873172 ] } },
{ "type": "Feature", "properties": { "METLINKSTO": "20016", "STATIONNAM": "Northcote", "STATIONTYP": "Unmanned", "ZONES": "1", "STOPMODENA": "Train" }, "geometry": { "type": "Point", "coordinates": [ 144.995281999472866, -37.769864999955402 ] } },
{ "type": "Feature", "properties": { "METLINKSTO": "20017", "STATIONNAM": "Merri", "STATIONTYP": "Unmanned", "ZONES": "1", "STOPMODENA": "Train" }, "geometry": { "type": "Point", "coordinates": [ 144.992975999750371, -37.777842999626728 ] } },
{ "type": "Feature", "properties": { "METLINKSTO": "20019", "STATIONNAM": "Rushall", "STATIONTYP": "Unmanned", "ZONES": "1", "STOPMODENA": "Train" }, "geometry": { "type": "Point", "coordinates": [ 144.992402999952276, -37.783217000569394 ] } },
{ "type": "Feature", "properties": { "METLINKSTO": "20020", "STATIONNAM": "Ardeer", "STATIONTYP": " ", "ZONES": "2,Reg", "STOPMODENA": "V/Line Train" }, "geometry": { "type": "Point", "coordinates": [ 144.80219299995241, -37.783063000642358 ] } },
{ "type": "Feature", "properties": { "METLINKSTO": "20021", "STATIONNAM": "Sunshine", "STATIONTYP": "Premium", "ZONES": "1,2", "STOPMODENA": "Train" }, "geometry": { "type": "Point", "coordinates": [ 144.832880000552194, -37.788534999811596 ] } },
{ "type": "Feature", "properties": { "METLINKSTO": "20022", "STATIONNAM": "Tottenham", "STATIONTYP": "Host", "ZONES": "1", "STOPMODENA": "Train" }, "geometry": { "type": "Point", "coordinates": [ 144.862948000639221, -37.799255000092536 ] } },
{ "type": "Feature", "properties": { "METLINKSTO": "20023", "STATIONNAM": "West Footscray", "STATIONTYP": "Unmanned", "ZONES": "1", "STOPMODENA": "Train" }, "geometry": { "type": "Point", "coordinates": [ 144.885326999198497, -37.80181199973466 ] } },
{ "type": "Feature", "properties": { "METLINKSTO": "20024", "STATIONNAM": "Middle Footscray", "STATIONTYP": "Unmanned", "ZONES": "1", "STOPMODENA": "Train" }, "geometry": { "type": "Point", "coordinates": [ 144.891473999350495, -37.802501000495042 ] } },
{ "type": "Feature", "properties": { "METLINKSTO": "20025", "STATIONNAM": "Footscray", "STATIONTYP": "Premium", "ZONES": "1", "STOPMODENA": "Train" }, "geometry": { "type": "Point", "coordinates": [ 144.903193999554304, -37.801084999562079 ] } },
{ "type": "Feature", "properties": { "METLINKSTO": "20026", "STATIONNAM": "South Kensington", "STATIONTYP": "Unmanned", "ZONES": "1", "STOPMODENA": "Train" }, "geometry": { "type": "Point", "coordinates": [ 144.925469000296658, -37.799533000099323 ] } },
{ "type": "Feature", "properties": { "METLINKSTO": "20029", "STATIONNAM": "Craigieburn", "STATIONTYP": " ", "ZONES": "2,Reg", "STOPMODENA": "V/Line Train" }, "geometry": { "type": "Point", "coordinates": [ 144.943309000294647, -37.601924999686446 ] } },
{ "type": "Feature", "properties": { "METLINKSTO": "20030", "STATIONNAM": "Broadmeadows", "STATIONTYP": "Premium", "ZONES": "2", "STOPMODENA": "Train" }, "geometry": { "type": "Point", "coordinates": [ 144.919614999981661, -37.683050999934231 ] } },
{ "type": "Feature", "properties": { "METLINKSTO": "20031", "STATIONNAM": "Jacana", "STATIONTYP": "Unmanned", "ZONES": "2", "STOPMODENA": "Train" }, "geometry": { "type": "Point", "coordinates": [ 144.915855000033957, -37.695132999374053 ] } },
{ "type": "Feature", "properties": { "METLINKSTO": "20032", "STATIONNAM": "Glenroy", "STATIONTYP": "Premium", "ZONES": "1,2", "STOPMODENA": "Train" }, "geometry": { "type": "Point", "coordinates": [ 144.917219000294352, -37.704533999397079 ] } },
{ "type": "Feature", "properties": { "METLINKSTO": "20033", "STATIONNAM": "Oak Park", "STATIONTYP": "Unmanned", "ZONES": "1,2", "STOPMODENA": "Train" }, "geometry": { "type": "Point", "coordinates": [ 144.921514999784137, -37.717949000800523 ] } },
{ "type": "Feature", "properties": { "METLINKSTO": "20034", "STATIONNAM": "Pascoe Vale", "STATIONTYP": "Unmanned", "ZONES": "1,2", "STOPMODENA": "Train" }, "geometry": { "type": "Point", "coordinates": [ 144.928193999527281, -37.730753999812315 ] } },
{ "type": "Feature", "properties": { "METLINKSTO": "20035", "STATIONNAM": "Strathmore", "STATIONTYP": "Unmanned", "ZONES": "1", "STOPMODENA": "Train" }, "geometry": { "type": "Point", "coordinates": [ 144.927319999942455, -37.74359300018908 ] } },
{ "type": "Feature", "properties": { "METLINKSTO": "20036", "STATIONNAM": "Glenbervie", "STATIONTYP": "Unmanned", "ZONES": "1", "STOPMODENA": "Train" }, "geometry": { "type": "Point", "coordinates": [ 144.920943999704349, -37.747214000151097 ] } },
{ "type": "Feature", "properties": { "METLINKSTO": "20037", "STATIONNAM": "Essendon", "STATIONTYP": "Premium", "ZONES": "1", "STOPMODENA": "Train" }, "geometry": { "type": "Point", "coordinates": [ 144.916197999703087, -37.756008000169857 ] } },
{ "type": "Feature", "properties": { "METLINKSTO": "20038", "STATIONNAM": "Moonee Ponds", "STATIONTYP": "Host", "ZONES": "1", "STOPMODENA": "Train" }, "geometry": { "type": "Point", "coordinates": [ 144.919158000685201, -37.765703999963883 ] } },
{ "type": "Feature", "properties": { "METLINKSTO": "20039", "STATIONNAM": "Ascot Vale", "STATIONTYP": "Unmanned", "ZONES": "1", "STOPMODENA": "Train" }, "geometry": { "type": "Point", "coordinates": [ 144.921825000534625, -37.77530999941596 ] } },
{ "type": "Feature", "properties": { "METLINKSTO": "20040", "STATIONNAM": "Newmarket", "STATIONTYP": "Unmanned", "ZONES": "1", "STOPMODENA": "Train" }, "geometry": { "type": "Point", "coordinates": [ 144.928984000268372, -37.787326000198057 ] } },
{ "type": "Feature", "properties": { "METLINKSTO": "20041", "STATIONNAM": "Kensington", "STATIONTYP": "Host", "ZONES": "1", "STOPMODENA": "Train" }, "geometry": { "type": "Point", "coordinates": [ 144.930525000863241, -37.793776999687914 ] } },
{ "type": "Feature", "properties": { "METLINKSTO": "20042", "STATIONNAM": "Box Hill", "STATIONTYP": "Premium", "ZONES": "2", "STOPMODENA": "Train" }, "geometry": { "type": "Point", "coordinates": [ 145.121426999982674, -37.81921900010633 ] } },
{ "type": "Feature", "properties": { "METLINKSTO": "20043", "STATIONNAM": "Southern Cross", "STATIONTYP": "Premium", "ZONES": "1,Reg", "STOPMODENA": "V/Line Train" }, "geometry": { "type": "Point", "coordinates": [ 144.952524000094371, -37.818333000297748 ] } },
{ "type": "Feature", "properties": { "METLINKSTO": "20287", "STATIONNAM": "Albury", "STATIONTYP": " ", "ZONES": "Reg", "STOPMODENA": "V/Line Train" }, "geometry": { "type": "Point", "coordinates": [ 146.924518000164852, -36.084262999986613 ] } },
{ "type": "Feature", "properties": { "METLINKSTO": "20288", "STATIONNAM": "Ararat", "STATIONTYP": " ", "ZONES": "Reg", "STOPMODENA": "V/Line Train" }, "geometry": { "type": "Point", "coordinates": [ 142.936911999837719, -37.282202000330777 ] } },
{ "type": "Feature", "properties": { "METLINKSTO": "20289", "STATIONNAM": "Avenel", "STATIONTYP": " ", "ZONES": "8,9,Reg", "STOPMODENA": "V/Line Train" }, "geometry": { "type": "Point", "coordinates": [ 145.229516999904263, -36.893644000374067 ] } },
{ "type": "Feature", "properties": { "METLINKSTO": "20290", "STATIONNAM": "Bacchus Marsh", "STATIONTYP": " ", "ZONES": "2,3,Reg", "STOPMODENA": "V/Line Train" }, "geometry": { "type": "Point", "coordinates": [ 144.436787999711925, -37.68758199987748 ] } },
{ "type": "Feature", "properties": { "METLINKSTO": "20291", "STATIONNAM": "Bairnsdale", "STATIONTYP": " ", "ZONES": "Reg", "STOPMODENA": "V/Line Train" }, "geometry": { "type": "Point", "coordinates": [ 147.627615000062747, -37.82871700036624 ] } },
{ "type": "Feature", "properties": { "METLINKSTO": "20292", "STATIONNAM": "Ballan", "STATIONTYP": " ", "ZONES": "4,5,Reg", "STOPMODENA": "V/Line Train" }, "geometry": { "type": "Point", "coordinates": [ 144.225443000032669, -37.604299999785383 ] } },
{ "type": "Feature", "properties": { "METLINKSTO": "20293", "STATIONNAM": "Ballarat", "STATIONTYP": " ", "ZONES": "8,Reg", "STOPMODENA": "V/Line Train" }, "geometry": { "type": "Point", "coordinates": [ 143.859451999723206, -37.558790000014334 ] } },
{ "type": "Feature", "properties": { "METLINKSTO": "20294", "STATIONNAM": "Beaufort", "STATIONTYP": " ", "ZONES": "12,13,Reg", "STOPMODENA": "V/Line Train" }, "geometry": { "type": "Point", "coordinates": [ 143.382233000372651, -37.427874999906372 ] } },
{ "type": "Feature", "properties": { "METLINKSTO": "20295", "STATIONNAM": "Benalla", "STATIONTYP": " ", "ZONES": "Reg", "STOPMODENA": "V/Line Train" }, "geometry": { "type": "Point", "coordinates": [ 145.983913999437902, -36.544548999873044 ] } },
{ "type": "Feature", "properties": { "METLINKSTO": "20296", "STATIONNAM": "Bendigo", "STATIONTYP": " ", "ZONES": "13,Reg", "STOPMODENA": "V/Line Train" }, "geometry": { "type": "Point", "coordinates": [ 144.283012000183959, -36.765673000335681 ] } },
{ "type": "Feature", "properties": { "METLINKSTO": "20297", "STATIONNAM": "Birregurra", "STATIONTYP": " ", "ZONES": "10,Reg", "STOPMODENA": "V/Line Train" }, "geometry": { "type": "Point", "coordinates": [ 143.783619999719861, -38.32880700002405 ] } },
{ "type": "Feature", "properties": { "METLINKSTO": "20298", "STATIONNAM": "Broadford", "STATIONTYP": " ", "ZONES": "4,5,Reg", "STOPMODENA": "V/Line Train" }, "geometry": { "type": "Point", "coordinates": [ 145.04300900009784, -37.207201999860288 ] } },
{ "type": "Feature", "properties": { "METLINKSTO": "20299", "STATIONNAM": "Bunyip", "STATIONTYP": " ", "ZONES": "4,5,Reg", "STOPMODENA": "V/Line Train" }, "geometry": { "type": "Point", "coordinates": [ 145.72076199986077, -38.099109999216779 ] } },
{ "type": "Feature", "properties": { "METLINKSTO": "20300", "STATIONNAM": "Camperdown", "STATIONTYP": " ", "ZONES": "Reg", "STOPMODENA": "V/Line Train" }, "geometry": { "type": "Point", "coordinates": [ 143.150931999723866, -38.228900000331599 ] } },
{ "type": "Feature", "properties": { "METLINKSTO": "20301", "STATIONNAM": "Castlemaine", "STATIONTYP": " ", "ZONES": "10,9,Reg", "STOPMODENA": "V/Line Train" }, "geometry": { "type": "Point", "coordinates": [ 144.213801000155883, -37.062835999658375 ] } },
{ "type": "Feature", "properties": { "METLINKSTO": "20302", "STATIONNAM": "Chiltern", "STATIONTYP": " ", "ZONES": "Reg", "STOPMODENA": "V/Line Train" }, "geometry": { "type": "Point", "coordinates": [ 146.611379999703331, -36.155633999958475 ] } },
{ "type": "Feature", "properties": { "METLINKSTO": "20303", "STATIONNAM": "Clarkefield", "STATIONTYP": " ", "ZONES": "2,Reg", "STOPMODENA": "V/Line Train" }, "geometry": { "type": "Point", "coordinates": [ 144.745368000486224, -37.483497000529987 ] } },
{ "type": "Feature", "properties": { "METLINKSTO": "20304", "STATIONNAM": "Colac", "STATIONTYP": " ", "ZONES": "11,12,Reg", "STOPMODENA": "V/Line Train" }, "geometry": { "type": "Point", "coordinates": [ 143.58665799928022, -38.34337799976776 ] } },
{ "type": "Feature", "properties": { "METLINKSTO": "20305", "STATIONNAM": "Corio", "STATIONTYP": " ", "ZONES": "3,4,Reg", "STOPMODENA": "V/Line Train" }, "geometry": { "type": "Point", "coordinates": [ 144.379769999639109, -38.072834999872349 ] } },
{ "type": "Feature", "properties": { "METLINKSTO": "20306", "STATIONNAM": "Dingee", "STATIONTYP": " ", "ZONES": "Reg", "STOPMODENA": "V/Line Train" }, "geometry": { "type": "Point", "coordinates": [ 144.231119999825523, -36.369235000353832 ] } },
{ "type": "Feature", "properties": { "METLINKSTO": "20307", "STATIONNAM": "Donnybrook", "STATIONTYP": " ", "ZONES": "2", "STOPMODENA": "V/Line Train" }, "geometry": { "type": "Point", "coordinates": [ 144.96986499959317, -37.542591999433576 ] } },
{ "type": "Feature", "properties": { "METLINKSTO": "20308", "STATIONNAM": "Drouin", "STATIONTYP": " ", "ZONES": "6,Reg", "STOPMODENA": "V/Line Train" }, "geometry": { "type": "Point", "coordinates": [ 145.855943000228251, -38.136453000337468 ] } },
{ "type": "Feature", "properties": { "METLINKSTO": "20309", "STATIONNAM": "Eaglehawk", "STATIONTYP": " ", "ZONES": "13,Reg", "STOPMODENA": "V/Line Train" }, "geometry": { "type": "Point", "coordinates": [ 144.248381999632585, -36.718527999949259 ] } },
{ "type": "Feature", "properties": { "METLINKSTO": "20310", "STATIONNAM": "Echuca", "STATIONTYP": " ", "ZONES": "Reg", "STOPMODENA": "V/Line Train" }, "geometry": { "type": "Point", "coordinates": [ 144.753462999892236, -36.130984999958919 ] } },
{ "type": "Feature", "properties": { "METLINKSTO": "20311", "STATIONNAM": "Elmore", "STATIONTYP": " ", "ZONES": "14,Reg", "STOPMODENA": "V/Line Train" }, "geometry": { "type": "Point", "coordinates": [ 144.607753000684966, -36.495017000237034 ] } },
{ "type": "Feature", "properties": { "METLINKSTO": "20312", "STATIONNAM": "Euroa", "STATIONTYP": " ", "ZONES": "12,Reg", "STOPMODENA": "V/Line Train" }, "geometry": { "type": "Point", "coordinates": [ 145.567864999215061, -36.749145000603448 ] } },
{ "type": "Feature", "properties": { "METLINKSTO": "20313", "STATIONNAM": "Garfield", "STATIONTYP": " ", "ZONES": "4,5,Reg", "STOPMODENA": "V/Line Train" }, "geometry": { "type": "Point", "coordinates": [ 145.67421999991646, -38.091030000657462 ] } },
{ "type": "Feature", "properties": { "METLINKSTO": "20314", "STATIONNAM": "Geelong", "STATIONTYP": " ", "ZONES": "4,Reg", "STOPMODENA": "V/Line Train" }, "geometry": { "type": "Point", "coordinates": [ 144.354992000814917, -38.144241000095434 ] } },
{ "type": "Feature", "properties": { "METLINKSTO": "20315", "STATIONNAM": "Gisborne", "STATIONTYP": " ", "ZONES": "3,4,Reg", "STOPMODENA": "V/Line Train" }, "geometry": { "type": "Point", "coordinates": [ 144.598718000331587, -37.458825000058638 ] } },
{ "type": "Feature", "properties": { "METLINKSTO": "20316", "STATIONNAM": "Heathcote Junction", "STATIONTYP": " ", "ZONES": "2", "STOPMODENA": "V/Line Train" }, "geometry": { "type": "Point", "coordinates": [ 145.02630499960847, -37.367732000149999 ] } },
{ "type": "Feature", "properties": { "METLINKSTO": "20317", "STATIONNAM": "Kangaroo Flat", "STATIONTYP": " ", "ZONES": "12,13,Reg", "STOPMODENA": "V/Line Train" }, "geometry": { "type": "Point", "coordinates": [ 144.248992999381073, -36.794838000356549 ] } },
{ "type": "Feature", "properties": { "METLINKSTO": "20318", "STATIONNAM": "Kerang", "STATIONTYP": " ", "ZONES": "Reg", "STOPMODENA": "V/Line Train" }, "geometry": { "type": "Point", "coordinates": [ 143.924429999779449, -35.733123000222704 ] } },
{ "type": "Feature", "properties": { "METLINKSTO": "20319", "STATIONNAM": "Kilmore East", "STATIONTYP": " ", "ZONES": "3,4,Reg", "STOPMODENA": "V/Line Train" }, "geometry": { "type": "Point", "coordinates": [ 144.983565000670581, -37.293207999557119 ] } },
{ "type": "Feature", "properties": { "METLINKSTO": "20320", "STATIONNAM": "Kyneton", "STATIONTYP": " ", "ZONES": "6,7,Reg", "STOPMODENA": "V/Line Train" }, "geometry": { "type": "Point", "coordinates": [ 144.450602000187473, -37.258276999972161 ] } },
{ "type": "Feature", "properties": { "METLINKSTO": "20321", "STATIONNAM": "Lara", "STATIONTYP": " ", "ZONES": "2,3,4", "STOPMODENA": "V/Line Train" }, "geometry": { "type": "Point", "coordinates": [ 144.414401999283143, -38.022427999120389 ] } },
{ "type": "Feature", "properties": { "METLINKSTO": "20323", "STATIONNAM": "Little River", "STATIONTYP": " ", "ZONES": "2", "STOPMODENA": "V/Line Train" }, "geometry": { "type": "Point", "coordinates": [ 144.498485000267237, -37.962927999990008 ] } },
{ "type": "Feature", "properties": { "METLINKSTO": "20324", "STATIONNAM": "Longwarry", "STATIONTYP": " ", "ZONES": "5,6,Reg", "STOPMODENA": "V/Line Train" }, "geometry": { "type": "Point", "coordinates": [ 145.766859999648347, -38.110991999841517 ] } },
{ "type": "Feature", "properties": { "METLINKSTO": "20325", "STATIONNAM": "Macedon", "STATIONTYP": " ", "ZONES": "3,4,Reg", "STOPMODENA": "V/Line Train" }, "geometry": { "type": "Point", "coordinates": [ 144.561397000014495, -37.4235769998484 ] } },
{ "type": "Feature", "properties": { "METLINKSTO": "20326", "STATIONNAM": "Malmsbury", "STATIONTYP": " ", "ZONES": "7,8,Reg", "STOPMODENA": "V/Line Train" }, "geometry": { "type": "Point", "coordinates": [ 144.375324999377227, -37.189744000610013 ] } },
{ "type": "Feature", "properties": { "METLINKSTO": "20327", "STATIONNAM": "Marshall", "STATIONTYP": " ", "ZONES": "4,Reg", "STOPMODENA": "V/Line Train" }, "geometry": { "type": "Point", "coordinates": [ 144.355054999799734, -38.198549999716555 ] } },
{ "type": "Feature", "properties": { "METLINKSTO": "20328", "STATIONNAM": "Moe", "STATIONTYP": " ", "ZONES": "10,9,Reg", "STOPMODENA": "V/Line Train" }, "geometry": { "type": "Point", "coordinates": [ 146.26269800042985, -38.176712999899742 ] } },
{ "type": "Feature", "properties": { "METLINKSTO": "20329", "STATIONNAM": "Mooroopna", "STATIONTYP": " ", "ZONES": "14,Reg", "STOPMODENA": "V/Line Train" }, "geometry": { "type": "Point", "coordinates": [ 145.358217000201677, -36.399127000113012 ] } },
{ "type": "Feature", "properties": { "METLINKSTO": "20330", "STATIONNAM": "Morwell", "STATIONTYP": " ", "ZONES": "11,Reg", "STOPMODENA": "V/Line Train" }, "geometry": { "type": "Point", "coordinates": [ 146.396751999735812, -38.236723000226185 ] } },
{ "type": "Feature", "properties": { "METLINKSTO": "20331", "STATIONNAM": "Murchison East", "STATIONTYP": " ", "ZONES": "11,12,Reg", "STOPMODENA": "V/Line Train" }, "geometry": { "type": "Point", "coordinates": [ 145.240639999905994, -36.613150000311876 ] } },
{ "type": "Feature", "properties": { "METLINKSTO": "20332", "STATIONNAM": "Nagambie", "STATIONTYP": " ", "ZONES": "10,9,Reg", "STOPMODENA": "V/Line Train" }, "geometry": { "type": "Point", "coordinates": [ 145.160358000255144, -36.785460000018389 ] } },
{ "type": "Feature", "properties": { "METLINKSTO": "20333", "STATIONNAM": "Nar Nar Goon", "STATIONTYP": " ", "ZONES": "3,4,Reg", "STOPMODENA": "V/Line Train" }, "geometry": { "type": "Point", "coordinates": [ 145.57166999987092, -38.081590000322663 ] } },
{ "type": "Feature", "properties": { "METLINKSTO": "20334", "STATIONNAM": "North Geelong", "STATIONTYP": " ", "ZONES": "3,4,Reg", "STOPMODENA": "V/Line Train" }, "geometry": { "type": "Point", "coordinates": [ 144.35227700046039, -38.12283600016265 ] } },
{ "type": "Feature", "properties": { "METLINKSTO": "20335", "STATIONNAM": "North Shore", "STATIONTYP": " ", "ZONES": "3,4,Reg", "STOPMODENA": "V/Line Train" }, "geometry": { "type": "Point", "coordinates": [ 144.365322999822581, -38.098372999930142 ] } },
{ "type": "Feature", "properties": { "METLINKSTO": "20336", "STATIONNAM": "Pyramid", "STATIONTYP": " ", "ZONES": "Reg", "STOPMODENA": "V/Line Train" }, "geometry": { "type": "Point", "coordinates": [ 144.113130000614092, -36.053113000307675 ] } }
]
}
